[
    {
        "id": 470445,
        "identifier": "00222",
        "lat": 41.27356725,
        "lng": -8.08744491,
        "name": "Continente Modelo Amarante",
        "country": "PT",
        "city": "Amarante",
        "province": "Porto",
        "streetAndNumber": "Tv. de São Lázaro",
        "zip": "4600-279",
        "businessId": 209756,
        "addressExtra": null
    },
    {
        "id": 470446,
        "identifier": "03197",
        "lat": 41.00045198,
        "lng": -8.63937925,
        "name": "Continente Bom Dia Espinho",
        "country": "PT",
        "city": "Espinho",
        "province": "Aveiro",
        "streetAndNumber": "Rua 22 1452",
        "zip": "4500-268",
        "businessId": 209756,
        "addressExtra": null
    },
    {
        "id": 470447,
        "identifier": "00260",
        "lat": 39.26317882,
        "lng": -8.01358164,
        "name": "Continente Modelo Ponte de Sôr",
        "country": "PT",
        "city": "Ponte de Sor",
        "province": "Portalegre",
        "streetAndNumber": "Rua General Humberto Delgado",
        "zip": "7400-259",
        "businessId": 209756,
        "addressExtra": null
    },
    {
        "id": 470448,
        "identifier": "00213",
        "lat": 39.47294247,
        "lng": -8.54560659,
        "name": "Continente Modelo Torres Novas",
        "country": "PT",
        "city": "Torres Novas",
        "province": "Santarém",
        "streetAndNumber": "R. de Santo António",
        "zip": "2350-537",
        "businessId": 209756,
        "addressExtra": null
    },
    {
        "id": 470449,
        "identifier": "02084",
        "lat": 32.66020703,
        "lng": -16.93037888,
        "name": "Continente Modelo Santo António",
        "country": "PT",
        "city": "Funchal",
        "province": "Madeira",
        "streetAndNumber": "R. Dr. França Jardim 2",
        "zip": "9020-401",
        "businessId": 209756,
        "addressExtra": null
    },
    {
        "id": 470450,
        "identifier": "01391",
        "lat": 39.33913112,
        "lng": -8.93047776,
        "name": "Continente Modelo Rio Maior",
        "country": "PT",
        "city": "Rio Maior",
        "province": "Santarém",
        "streetAndNumber": "Av. Dr. Mário Soares",
        "zip": "2040-413",
        "businessId": 209756,
        "addressExtra": null
    },
    {
        "id": 470451,
        "identifier": "00004",
        "lat": 41.11833022,
        "lng": -8.62063861,
        "name": "Continente Gaiashopping",
        "country": "PT",
        "city": "Vila Nova de Gaia",
        "province": "Porto",
        "streetAndNumber": "Av. dos Descobrimentos",
        "zip": "4400-503",
        "businessId": 209756,
        "addressExtra": "Rua Particular de Santo António, Gaiashopping"
    },
    {
        "id": 470452,
        "identifier": "02404",
        "lat": 40.68233346,
        "lng": -8.47084988,
        "name": "Continente Bom Dia Albergaria-a-Velha",
        "country": "PT",
        "city": "Albergaria-a-Velha",
        "province": "Aveiro",
        "streetAndNumber": "Rua Comendador Augusto Martins Pereira",
        "zip": "3850-089",
        "businessId": 209756,
        "addressExtra": null
    },
    {
        "id": 470453,
        "identifier": "00006",
        "lat": 40.19419588,
        "lng": -8.40871413,
        "name": "Continente Coimbrashopping",
        "country": "PT",
        "city": "Coimbra",
        "province": "Coimbra",
        "streetAndNumber": "Avenida Mendes Silva",
        "zip": "3030-193",
        "businessId": 209756,
        "addressExtra": null
    },
    {
        "id": 470454,
        "identifier": "00458",
        "lat": 40.64924466,
        "lng": -8.6148854,
        "name": "Continente Aveiro",
        "country": "PT",
        "city": "Esgueira",
        "province": "Aveiro",
        "streetAndNumber": "Estrada da Taboeira",
        "zip": "3800-000",
        "businessId": 209756,
        "addressExtra": "Aveiro Shopping Center, Quinta Simão Sul"
    },
    {
        "id": 470455,
        "identifier": "00340",
        "lat": 41.14783184,
        "lng": -8.63403874,
        "name": "Continente Bom Dia Massarelos",
        "country": "PT",
        "city": "Massarelos",
        "province": "Porto",
        "streetAndNumber": "Alameda de Basílio Teles 152",
        "zip": "4150-138",
        "businessId": 209756,
        "addressExtra": null
    },
    {
        "id": 470456,
        "identifier": "01059",
        "lat": 40.59571258,
        "lng": -8.66235982,
        "name": "Continente Modelo Ilhavo",
        "country": "PT",
        "city": "Ílhavo",
        "province": "Aveiro",
        "streetAndNumber": "Via do Mercado",
        "zip": "3830-246",
        "businessId": 209756,
        "addressExtra": null
    },
    {
        "id": 470457,
        "identifier": "00207",
        "lat": 38.00562432,
        "lng": -7.86810193,
        "name": "Continente Beja",
        "country": "PT",
        "city": "Beja",
        "province": "Beja",
        "streetAndNumber": "Rua Zeca Afonso",
        "zip": "7800-522",
        "businessId": 209756,
        "addressExtra": null
    },
    {
        "id": 470458,
        "identifier": "01978",
        "lat": 37.15196481,
        "lng": -8.5529842,
        "name": "Continente Portimão Cabeço do Mocho",
        "country": "PT",
        "city": "Portimão",
        "province": "Faro",
        "streetAndNumber": "Rua das Papoilas",
        "zip": "8500-313",
        "businessId": 209756,
        "addressExtra": "Cabeço do Mocho"
    },
    {
        "id": 470459,
        "identifier": "00221",
        "lat": 39.55839829,
        "lng": -8.97756152,
        "name": "Continente Modelo Alcobaça",
        "country": "PT",
        "city": "Alcobaça",
        "province": "Leiria",
        "streetAndNumber": "Rua General Humberto Delgado",
        "zip": "2460-052",
        "businessId": 209756,
        "addressExtra": null
    },
    {
        "id": 470460,
        "identifier": "00257",
        "lat": 32.65921843,
        "lng": -16.95072456,
        "name": "Continente Modelo MadeiraShopping",
        "country": "PT",
        "city": "Funchal",
        "province": "Madeira",
        "streetAndNumber": "Rua dos Alecrins",
        "zip": "9020-119",
        "businessId": 209756,
        "addressExtra": "Centro Comercial Madeira Shopping - Caminho Sta. Quitéria"
    },
    {
        "id": 470461,
        "identifier": "01704",
        "lat": 41.207104,
        "lng": -8.611842,
        "name": "Continente Bom Dia Ponte da Pedra",
        "country": "PT",
        "city": "Ponte da Pedra",
        "province": "Porto",
        "streetAndNumber": "Rua Ponte da Pedra 240-302",
        "zip": "4470-108",
        "businessId": 209756,
        "addressExtra": "Centro Empresarial 3A"
    },
    {
        "id": 470462,
        "identifier": "01397",
        "lat": 38.75058926,
        "lng": -9.27489678,
        "name": "Continente Bom Dia Massamá Sul",
        "country": "PT",
        "city": "Massamá",
        "province": "Lisboa",
        "streetAndNumber": "Rua Sebastião e Silva 3",
        "zip": "2734-838",
        "businessId": 209756,
        "addressExtra": "lote"
    },
    {
        "id": 470463,
        "identifier": "03341",
        "lat": 41.571623,
        "lng": -8.26928,
        "name": "Continente Bom Dia Póvoa de Lanhoso",
        "country": "PT",
        "city": "Póvoa de Lanhoso",
        "province": "Braga",
        "streetAndNumber": "Rua Teixeira Ribeiro 212",
        "zip": "4830-512",
        "businessId": 209756,
        "addressExtra": null
    },
    {
        "id": 470464,
        "identifier": "00265",
        "lat": 41.2022343,
        "lng": -8.5457687,
        "name": "Continente Modelo Ermesinde",
        "country": "PT",
        "city": "Ermesinde",
        "province": "Porto",
        "streetAndNumber": "Rua das Macieiras 330",
        "zip": "4450-502",
        "businessId": 209756,
        "addressExtra": null
    },
    {
        "id": 470465,
        "identifier": "00215",
        "lat": 39.24312639,
        "lng": -8.68784585,
        "name": "Continente Santarém",
        "country": "PT",
        "city": "Santarém",
        "province": "Santarém",
        "streetAndNumber": "R. Alexandre Herculano",
        "zip": "2005-181",
        "businessId": 209756,
        "addressExtra": "Quinta S. Bernardo, Bairro S. Vicente"
    },
    {
        "id": 470466,
        "identifier": "00927",
        "lat": 38.65194688,
        "lng": -9.06607973,
        "name": "Continente Barreiro",
        "country": "PT",
        "city": "Barreiro",
        "province": "Setúbal",
        "streetAndNumber": "Rua Cândido de Oliveira",
        "zip": "2830-000",
        "businessId": 209756,
        "addressExtra": "e Rua D. João I, Verderena"
    },
    {
        "id": 470468,
        "identifier": "02632",
        "lat": 38.61238658,
        "lng": -9.19108819,
        "name": "Continente Bom Dia Charneca da Caparica",
        "country": "PT",
        "city": "Charneca de Caparica",
        "province": "Setúbal",
        "streetAndNumber": "Rua António Andrade 1168A",
        "zip": "2820-287",
        "businessId": 209756,
        "addressExtra": null
    },
    {
        "id": 470469,
        "identifier": "00267",
        "lat": 40.44489909,
        "lng": -8.45084283,
        "name": "Continente Modelo Anadia",
        "country": "PT",
        "city": "Anadia",
        "province": "Aveiro",
        "streetAndNumber": "N1",
        "zip": "3780-222",
        "businessId": 209756,
        "addressExtra": "Malaposta"
    },
    {
        "id": 470470,
        "identifier": "02754",
        "lat": 40.21312462,
        "lng": -8.43387659,
        "name": "Continente Bom Dia Coimbra",
        "country": "PT",
        "city": "Coimbra",
        "province": "Coimbra",
        "streetAndNumber": "Avenida Fernão de Magalhães 333",
        "zip": "3000-176",
        "businessId": 209756,
        "addressExtra": null
    },
    {
        "id": 470471,
        "identifier": "00011",
        "lat": 38.83419486,
        "lng": -9.15648498,
        "name": "Continente Loureshopping",
        "country": "PT",
        "city": "Loures",
        "province": "Lisboa",
        "streetAndNumber": "Avenida Descobertas 257",
        "zip": "2670-482",
        "businessId": 209756,
        "addressExtra": "Urbanização Quinta do Inquisidor, Loureshopping"
    },
    {
        "id": 470472,
        "identifier": "00293",
        "lat": 40.11668707,
        "lng": -8.2388896,
        "name": "Continente Modelo Lousã",
        "country": "PT",
        "city": "Lousã",
        "province": "Coimbra",
        "streetAndNumber": "Avenida Doutor José Maria Cardoso",
        "zip": "3200-202",
        "businessId": 209756,
        "addressExtra": null
    },
    {
        "id": 470473,
        "identifier": "00268",
        "lat": 40.9162451,
        "lng": -8.5780178,
        "name": "Continente Modelo Vagos",
        "country": "PT",
        "city": "Vagos",
        "province": "Aveiro",
        "streetAndNumber": "Estrada Nacional 109",
        "zip": "3840-560",
        "businessId": 209756,
        "addressExtra": null
    },
    {
        "id": 470474,
        "identifier": "00283",
        "lat": 38.19020195,
        "lng": -8.56589802,
        "name": "Continente Modelo Grândola",
        "country": "PT",
        "city": "Grândola",
        "province": "Setúbal",
        "streetAndNumber": "R. Arlindo Vicente",
        "zip": "7570-125",
        "businessId": 209756,
        "addressExtra": "Bairro da Liberdade"
    },
    {
        "id": 470475,
        "identifier": "00259",
        "lat": 38.64375504,
        "lng": -8.97875685,
        "name": "Continente Modelo Moita",
        "country": "PT",
        "city": "Moita",
        "province": "Setúbal",
        "streetAndNumber": "Rua de Palmela",
        "zip": "2860-297",
        "businessId": 209756,
        "addressExtra": "Quinta do Carvalhinho"
    },
    {
        "id": 470476,
        "identifier": "02692",
        "lat": 38.56795565,
        "lng": -8.93517764,
        "name": "Continente Bom Dia Quinta do Anjo",
        "country": "PT",
        "city": "Quinta do Anjo",
        "province": "Setúbal",
        "streetAndNumber": "Rua Venâncio da Costa Lima 189",
        "zip": "2950-805",
        "businessId": 209756,
        "addressExtra": null
    },
    {
        "id": 470477,
        "identifier": "00333",
        "lat": 41.23658248,
        "lng": -8.59667258,
        "name": "Continente Maia Jardim",
        "country": "PT",
        "city": "Maia",
        "province": "Porto",
        "streetAndNumber": "Rua Agostinho da Silva Rocha",
        "zip": "4475-451",
        "businessId": 209756,
        "addressExtra": "Nogueira"
    },
    {
        "id": 470478,
        "identifier": "01000",
        "lat": 40.991271,
        "lng": -8.571649,
        "name": "Continente Modelo Mozelos",
        "country": "PT",
        "city": "Mozelos",
        "province": "Aveiro",
        "streetAndNumber": "Rua do Murado, 292 - Mozelos",
        "zip": "4535-211",
        "businessId": 209756,
        "addressExtra": null
    },
    {
        "id": 470479,
        "identifier": "02634",
        "lat": 41.82277143,
        "lng": -8.87077225,
        "name": "Continente Bom Dia Vila Praia de Âncora",
        "country": "PT",
        "city": "Vila Praia de Âncora",
        "province": "Viana do Castelo",
        "streetAndNumber": "Rua 5 de Outubro",
        "zip": "4910-456",
        "businessId": 209756,
        "addressExtra": null
    },
    {
        "id": 470480,
        "identifier": "00304",
        "lat": 41.16689706,
        "lng": -8.61297185,
        "name": "Continente Bom Dia Vale Formoso",
        "country": "PT",
        "city": "Vale Formoso",
        "province": "Porto",
        "streetAndNumber": "Rua Luís Aguiar 16-26",
        "zip": "4250-269",
        "businessId": 209756,
        "addressExtra": null
    },
    {
        "id": 470481,
        "identifier": "00270",
        "lat": 39.19644173,
        "lng": -8.62075325,
        "name": "Continente Modelo Almeirim",
        "country": "PT",
        "city": "Almeirim",
        "province": "Santarém",
        "streetAndNumber": "R. do Matadouro Mun. 119",
        "zip": "2080-107",
        "businessId": 209756,
        "addressExtra": null
    },
    {
        "id": 470482,
        "identifier": "00201",
        "lat": 37.09050174,
        "lng": -8.24108454,
        "name": "Continente Modelo Albufeira",
        "country": "PT",
        "city": "Albufeira",
        "province": "Faro",
        "streetAndNumber": "Rua do Município 32",
        "zip": "8200-161",
        "businessId": 209756,
        "addressExtra": "Lote"
    },
    {
        "id": 470483,
        "identifier": "00277",
        "lat": 41.32556761,
        "lng": -8.5676901,
        "name": "Continente Modelo Trofa",
        "country": "PT",
        "city": "Trofa",
        "province": "Porto",
        "streetAndNumber": "Avenida Trofa Velha",
        "zip": "4785-716",
        "businessId": 209756,
        "addressExtra": "S. Tiago do Bougado"
    },
    {
        "id": 470484,
        "identifier": "01703",
        "lat": 41.51095895,
        "lng": -7.98840637,
        "name": "Continente Bom Dia Cabeceiras de Basto",
        "country": "PT",
        "city": "Cabeceiras de Basto",
        "province": "Braga",
        "streetAndNumber": "Avenida Cardeal Dom António Ribeiro",
        "zip": "4860-306",
        "businessId": 209756,
        "addressExtra": null
    },
    {
        "id": 470485,
        "identifier": "04291",
        "lat": 38.70664242,
        "lng": -9.20481896,
        "name": "Continente Bom Dia Restelo",
        "country": "PT",
        "city": "Lisboa",
        "province": "Lisboa",
        "streetAndNumber": "Rua Conselheiro Martins de Carvalho",
        "zip": "1400-069",
        "businessId": 209756,
        "addressExtra": null
    },
    {
        "id": 470486,
        "identifier": "02090",
        "lat": 41.37195903,
        "lng": -8.31063129,
        "name": "Continente Modelo Vizela (São João)",
        "country": "PT",
        "city": "Vizela",
        "province": "Braga",
        "streetAndNumber": "Rua Comendador Joaquim de Sousa Oliveira",
        "zip": "4815-401",
        "businessId": 209756,
        "addressExtra": null
    },
    {
        "id": 470487,
        "identifier": "01985",
        "lat": 38.69298503,
        "lng": -9.35838401,
        "name": "Continente Bom Dia Parede II",
        "country": "PT",
        "city": "Lisboa",
        "province": "Lisboa",
        "streetAndNumber": "Rua Timor",
        "zip": "2775-291",
        "businessId": 209756,
        "addressExtra": null
    },
    {
        "id": 470488,
        "identifier": "00272",
        "lat": 41.06939736,
        "lng": -8.62532576,
        "name": "Continente Modelo Gulpilhares",
        "country": "PT",
        "city": "Gulpilhares",
        "province": "Porto",
        "streetAndNumber": "Rua Norton de Matos",
        "zip": "4405-671",
        "businessId": 209756,
        "addressExtra": "Rua das Pedrinhas Brancas"
    },
    {
        "id": 470489,
        "identifier": "02089",
        "lat": 32.65019343,
        "lng": -16.93781964,
        "name": "Continente Modelo São Martinho",
        "country": "PT",
        "city": "Funchal",
        "province": "Madeira",
        "streetAndNumber": "Caminho de São Martinho 14",
        "zip": "9000-070",
        "businessId": 209756,
        "addressExtra": null
    },
    {
        "id": 470490,
        "identifier": "00204",
        "lat": 41.31161895,
        "lng": -7.73296422,
        "name": "Continente Vila Real",
        "country": "PT",
        "city": "Vila Real",
        "province": "Vila Real",
        "streetAndNumber": "Avenida do Regimento de Infantaria 13 13 40",
        "zip": "5000-436",
        "businessId": 209756,
        "addressExtra": null
    },
    {
        "id": 470491,
        "identifier": "03594",
        "lat": 37.03296607,
        "lng": -7.96245628,
        "name": "Continente Bom Dia Faro",
        "country": "PT",
        "city": "Faro",
        "province": "Faro",
        "streetAndNumber": "Rua Norton de Matos 20-22",
        "zip": "8005-267",
        "businessId": 209756,
        "addressExtra": null
    },
    {
        "id": 470492,
        "identifier": "01707",
        "lat": 38.79270931,
        "lng": -9.17305724,
        "name": "Continente Bom Dia Odivelas",
        "country": "PT",
        "city": "Odivelas",
        "province": "Lisboa",
        "streetAndNumber": "Rua José Gomes Monteiro",
        "zip": "2675-341",
        "businessId": 209756,
        "addressExtra": "Lojas 1/2 Edifício Plaza"
    },
    {
        "id": 470493,
        "identifier": "01053",
        "lat": 41.25502215,
        "lng": -8.65365658,
        "name": "Continente Modelo Maia Vivaci",
        "country": "PT",
        "city": "Moreira",
        "province": "Porto",
        "streetAndNumber": "Estrada Real 95",
        "zip": "4470-274",
        "businessId": 209756,
        "addressExtra": null
    },
    {
        "id": 470494,
        "identifier": "00335",
        "lat": 38.65321634,
        "lng": -9.15213683,
        "name": "Continente Bom Dia Laranjeiro",
        "country": "PT",
        "city": "Laranjeiro",
        "province": "Setúbal",
        "streetAndNumber": "Praceta Luís Sá 2/8",
        "zip": "2810-371",
        "businessId": 209756,
        "addressExtra": null
    },
    {
        "id": 470495,
        "identifier": "00321",
        "lat": 38.73138561,
        "lng": -9.14170656,
        "name": "Continente Bom Dia Almirante Barroso",
        "country": "PT",
        "city": "Lisboa",
        "province": "Lisbon",
        "streetAndNumber": "Rua Almirante Barroso 9-9A-9B",
        "zip": "1000-012",
        "businessId": 209756,
        "addressExtra": "S. Sebastião da Pedreira"
    },
    {
        "id": 470496,
        "identifier": "00224",
        "lat": 41.76423912,
        "lng": -7.46760942,
        "name": "Continente Modelo Chaves",
        "country": "PT",
        "city": "Chaves",
        "province": "Vila Real",
        "streetAndNumber": "Av. Cocanha",
        "zip": "5400-570",
        "businessId": 209756,
        "addressExtra": null
    },
    {
        "id": 470497,
        "identifier": "00234",
        "lat": 38.95397836,
        "lng": -9.3342323,
        "name": "Continente Modelo Mafra",
        "country": "PT",
        "city": "Mafra",
        "province": "Lisboa",
        "streetAndNumber": "R. da Escola",
        "zip": "2640-577",
        "businessId": 209756,
        "addressExtra": "Estrada Nacional 116 - Salgados"
    },
    {
        "id": 470498,
        "identifier": "00845",
        "lat": 32.66016594,
        "lng": -16.91988482,
        "name": "Continente Modelo Viveiros",
        "country": "PT",
        "city": "Funchal",
        "province": "Madeira",
        "streetAndNumber": "Estrada Dr. João Abel de Freitas",
        "zip": "9000-310",
        "businessId": 209756,
        "addressExtra": "ViveirosSão Roque"
    },
    {
        "id": 470499,
        "identifier": "02087",
        "lat": 32.66972578,
        "lng": -16.97691323,
        "name": "Continente Modelo Estreito Câmara de Lobos",
        "country": "PT",
        "city": "Estreito De Câmara",
        "province": "Madeira",
        "streetAndNumber": "R. das Vinhas",
        "zip": "9325-063",
        "businessId": 209756,
        "addressExtra": "Estreito Camara de Lobos Igreja"
    },
    {
        "id": 470500,
        "identifier": "00216",
        "lat": 41.18323788,
        "lng": -8.14913806,
        "name": "Continente Modelo Marco de Canaveses",
        "country": "PT",
        "city": "Marco de Canaveses",
        "province": "Porto",
        "streetAndNumber": "R. 1º de Maio",
        "zip": "4630-205",
        "businessId": 209756,
        "addressExtra": "Tuías, Lugar do Cotovio Edif. Sonae"
    },
    {
        "id": 470501,
        "identifier": "00005",
        "lat": 39.73266433,
        "lng": -8.82356479,
        "name": "Continente Leiria",
        "country": "PT",
        "city": "Leiria",
        "province": "Leiria",
        "streetAndNumber": "R. Q.ta do Seminário",
        "zip": "2400-441",
        "businessId": 209756,
        "addressExtra": "Rua do Alto do Vieiro, Leiria Shopping, IC2"
    },
    {
        "id": 470502,
        "identifier": "00252",
        "lat": 37.02858934,
        "lng": -7.85596847,
        "name": "Continente Modelo Olhão",
        "country": "PT",
        "city": "Olhão",
        "province": "Faro",
        "streetAndNumber": "Estrada Nacional 125",
        "zip": "8700-173",
        "businessId": 209756,
        "addressExtra": "Sítio do Belmonte"
    },
    {
        "id": 470503,
        "identifier": "00297",
        "lat": 39.66055839,
        "lng": -8.58315184,
        "name": "Continente Modelo Ourém",
        "country": "PT",
        "city": "Ourém",
        "province": "Santarém",
        "streetAndNumber": "Rua do Vale da Aveleira",
        "zip": "2490-542",
        "businessId": 209756,
        "addressExtra": null
    },
    {
        "id": 470504,
        "identifier": "00313",
        "lat": 38.790213,
        "lng": -9.10693578,
        "name": "Continente Bom Dia Sacavém",
        "country": "PT",
        "city": "Lisboa",
        "province": "Lisboa",
        "streetAndNumber": "Quinta do Património 20",
        "zip": "2685-010",
        "businessId": 209756,
        "addressExtra": "Sacavém, Urbanização, Lote"
    },
    {
        "id": 470505,
        "identifier": "01503",
        "lat": 37.96381919,
        "lng": -8.85815975,
        "name": "Continente Modelo Sines",
        "country": "PT",
        "city": "Sines",
        "province": "Setúbal",
        "streetAndNumber": "A26-1",
        "zip": "7520-000",
        "businessId": 209756,
        "addressExtra": "4, Loteamento Municipal a norte da R52, Lote"
    },
    {
        "id": 470506,
        "identifier": "00211",
        "lat": 41.36198668,
        "lng": -8.19748817,
        "name": "Continente Modelo Felgueiras",
        "country": "PT",
        "city": "Felgueiras",
        "province": "Porto",
        "streetAndNumber": "Rua Professor Joaquim Barros Leite",
        "zip": "4610-211",
        "businessId": 209756,
        "addressExtra": null
    },
    {
        "id": 470507,
        "identifier": "00205",
        "lat": 39.4131898,
        "lng": -9.140455,
        "name": "Continente Modelo Caldas da Rainha",
        "country": "PT",
        "city": "Caldas da Rainha",
        "province": "Leiria",
        "streetAndNumber": "Rua Dr Bernardino António Carv. Pargana",
        "zip": "2500-136",
        "businessId": 209756,
        "addressExtra": null
    },
    {
        "id": 470508,
        "identifier": "02813",
        "lat": 41.16222538,
        "lng": -8.653378,
        "name": "Continente Bom Dia Cufra (Av. da Boavista)",
        "country": "PT",
        "city": "Porto",
        "province": "Porto",
        "streetAndNumber": "Avenida da Boavista 2528",
        "zip": "4100-119",
        "businessId": 209756,
        "addressExtra": null
    },
    {
        "id": 470509,
        "identifier": "00001",
        "lat": 41.18239428,
        "lng": -8.65801006,
        "name": "Continente Matosinhos",
        "country": "PT",
        "city": "Senhora da Hora",
        "province": "Porto",
        "streetAndNumber": "Rua João Mendonça 505",
        "zip": "4464-503",
        "businessId": 209756,
        "addressExtra": null
    },
    {
        "id": 470510,
        "identifier": "00284",
        "lat": 38.42417386,
        "lng": -7.52338081,
        "name": "Continente Modelo Reguengos",
        "country": "PT",
        "city": "Reguengos de Monsaraz",
        "province": "Évora",
        "streetAndNumber": "Rua da Junqueira",
        "zip": "7200-516",
        "businessId": 209756,
        "addressExtra": null
    },
    {
        "id": 470511,
        "identifier": "00867",
        "lat": 32.65470666,
        "lng": -16.97138588,
        "name": "Continente Modelo Câmara de Lobos",
        "country": "PT",
        "city": "Câmara de Lobos",
        "province": "Madeira",
        "streetAndNumber": "Rua Frei Pedro da Guarda",
        "zip": "9300-066",
        "businessId": 209756,
        "addressExtra": null
    },
    {
        "id": 470512,
        "identifier": "00239",
        "lat": 41.80376336,
        "lng": -6.78816473,
        "name": "Continente Modelo Bragança",
        "country": "PT",
        "city": "Bragança",
        "province": "Bragança",
        "streetAndNumber": "Avenida Abade de Baçal 68",
        "zip": "5300-068",
        "businessId": 209756,
        "addressExtra": null
    },
    {
        "id": 470513,
        "identifier": "00278",
        "lat": 38.65502958,
        "lng": -9.03344499,
        "name": "Continente Modelo Alhos Vedros",
        "country": "PT",
        "city": "Alhos Vedros",
        "province": "Setúbal",
        "streetAndNumber": "N11-1 11-1",
        "zip": "2860-004",
        "businessId": 209756,
        "addressExtra": "(Extinta Corticeira Ibérica),Estrada Nacional"
    },
    {
        "id": 470514,
        "identifier": "01058",
        "lat": 38.71644114,
        "lng": -9.34429446,
        "name": "Continente Modelo Tires",
        "country": "PT",
        "city": "São Domingos de Rana",
        "province": "Lisboa",
        "streetAndNumber": "R. Principal 792",
        "zip": "2785-204",
        "businessId": 209756,
        "addressExtra": "Rua Amália Rodrigues, nº"
    },
    {
        "id": 470515,
        "identifier": "03605",
        "lat": 41.54137594,
        "lng": -8.430292,
        "name": "Continente Bom Dia Braga - Quinta das Portas",
        "country": "PT",
        "city": "Braga",
        "province": "Braga",
        "streetAndNumber": "Rua de Abraão",
        "zip": "4705-076",
        "businessId": 209756,
        "addressExtra": "Quinta das Portas, nº120"
    },
    {
        "id": 470516,
        "identifier": "01169",
        "lat": 40.86564317,
        "lng": -8.61402523,
        "name": "Continente Modelo Ovar",
        "country": "PT",
        "city": "Ovar",
        "province": "Aveiro",
        "streetAndNumber": "R. Dr. Mário Sacramento",
        "zip": "3880-783",
        "businessId": 209756,
        "addressExtra": "Freguesia de S. João"
    },
    {
        "id": 470517,
        "identifier": "01906",
        "lat": 38.62428672,
        "lng": -9.12607606,
        "name": "Continente Bom Dia Cruz de Pau",
        "country": "PT",
        "city": "Cruz de Pau",
        "province": "Setúbal",
        "streetAndNumber": "Praceta Quinta dos Pinheiros e Girassóis",
        "zip": "2845-037",
        "businessId": 209756,
        "addressExtra": null
    },
    {
        "id": 470518,
        "identifier": "00010",
        "lat": 41.22026709,
        "lng": -8.56237272,
        "name": "Continente Maiashopping",
        "country": "PT",
        "city": "Porto",
        "province": "Porto",
        "streetAndNumber": "Lugar de Ardegães 1009",
        "zip": "4445-000",
        "businessId": 209756,
        "addressExtra": "Maia, Apartado"
    },
    {
        "id": 470519,
        "identifier": "01904",
        "lat": 38.7561005,
        "lng": -9.14312198,
        "name": "Continente Bom Dia Alvalade",
        "country": "PT",
        "city": "Lisboa",
        "province": "Lisboa",
        "streetAndNumber": "Rua Acácio de Paiva 22",
        "zip": "1700-007",
        "businessId": 209756,
        "addressExtra": null
    },
    {
        "id": 470520,
        "identifier": "00237",
        "lat": 38.91976325,
        "lng": -8.87223193,
        "name": "Continente Modelo Porto Alto",
        "country": "PT",
        "city": "Samora Correia",
        "province": "Santarém",
        "streetAndNumber": "Estrada da Samorena",
        "zip": "2135-000",
        "businessId": 209756,
        "addressExtra": "Km109, Nacional 10"
    },
    {
        "id": 470521,
        "identifier": "00303",
        "lat": 38.74796844,
        "lng": -9.14878363,
        "name": "Continente Bom Dia Campo Grande",
        "country": "PT",
        "city": "Campo Grande",
        "province": "Lisboa",
        "streetAndNumber": "Campo Grande 1-A",
        "zip": "1700-086",
        "businessId": 209756,
        "addressExtra": null
    },
    {
        "id": 470522,
        "identifier": "00248",
        "lat": 41.22538374,
        "lng": -8.40856343,
        "name": "Continente Modelo Rebordosa",
        "country": "PT",
        "city": "Rebordosa",
        "province": "Porto",
        "streetAndNumber": "R. do Vilar",
        "zip": "4580-340",
        "businessId": 209756,
        "addressExtra": "Rebordosa"
    },
    {
        "id": 470523,
        "identifier": "02403",
        "lat": 40.52589881,
        "lng": -8.08559955,
        "name": "Continente Bom Dia Tondela",
        "country": "PT",
        "city": "Tondela",
        "province": "Viseu",
        "streetAndNumber": "Rua Doutor Fernando de Figueiredo",
        "zip": "3460-551",
        "businessId": 209756,
        "addressExtra": "Rotunda dos Combatentes do Ultramar, Fojo"
    },
    {
        "id": 470524,
        "identifier": "00016",
        "lat": 40.87518871,
        "lng": -8.63388831,
        "name": "Continente Ovar",
        "country": "PT",
        "city": "Ovar",
        "province": "Aveiro",
        "streetAndNumber": "Av. D. Manuel I",
        "zip": "3880-109",
        "businessId": 209756,
        "addressExtra": "Sports Fórum Centro Comercial Dolce Vita"
    },
    {
        "id": 470525,
        "identifier": "03198",
        "lat": 41.53919328,
        "lng": -6.95720931,
        "name": "Continente Bom Dia Macedo de Cavaleiros",
        "country": "PT",
        "city": "Macedo de Cavaleiros",
        "province": "Bragança",
        "streetAndNumber": "R. Beato Bento de Castro",
        "zip": "5340-249",
        "businessId": 209756,
        "addressExtra": "Rua Dr. Aguedo de Oliveira"
    },
    {
        "id": 470526,
        "identifier": "01910",
        "lat": 39.63583803,
        "lng": -8.68287122,
        "name": "Continente Bom Dia Fátima",
        "country": "PT",
        "city": "Fátima",
        "province": "Santarém",
        "streetAndNumber": "Rua das Terras Novas",
        "zip": "2495-000",
        "businessId": 209756,
        "addressExtra": null
    },
    {
        "id": 470527,
        "identifier": "00298",
        "lat": 39.6116686,
        "lng": -9.06405296,
        "name": "Continente Modelo Nazaré",
        "country": "PT",
        "city": "Nazaré",
        "province": "Leiria",
        "streetAndNumber": "Praca Maria do Mar",
        "zip": "2450-287",
        "businessId": 209756,
        "addressExtra": "Avenida Abílio Santos e Sousa 3"
    },
    {
        "id": 470528,
        "identifier": "00262",
        "lat": 41.3934167,
        "lng": -8.75471242,
        "name": "Continente Modelo Póvoa de Varzim",
        "country": "PT",
        "city": "Póvoa de Varzim",
        "province": "Porto",
        "streetAndNumber": "Rua 25 de Abril 55",
        "zip": "4495-252",
        "businessId": 209756,
        "addressExtra": null
    },
    {
        "id": 470529,
        "identifier": "00389",
        "lat": 38.8262119,
        "lng": -9.08800184,
        "name": "Continente Modelo São João da Talha",
        "country": "PT",
        "city": "Loures",
        "province": "Lisboa",
        "streetAndNumber": "Estrada Nacional 10",
        "zip": "2695-671",
        "businessId": 209756,
        "addressExtra": "Quinta da Maçaroca"
    },
    {
        "id": 470530,
        "identifier": "00250",
        "lat": 41.14525403,
        "lng": -8.55298875,
        "name": "Continente Modelo São Cosme",
        "country": "PT",
        "city": "São Cosme",
        "province": "Porto",
        "streetAndNumber": "Rua Luís de Camões 706",
        "zip": "4420-490",
        "businessId": 209756,
        "addressExtra": "Largo dos Carregais"
    },
    {
        "id": 470531,
        "identifier": "01393",
        "lat": 41.53000085,
        "lng": -8.64205547,
        "name": "Continente Modelo Barcelos",
        "country": "PT",
        "city": "Vila Frescainha (São Pedro)",
        "province": "Braga",
        "streetAndNumber": "Rua do Passal",
        "zip": "4750-850",
        "businessId": 209756,
        "addressExtra": "Freguesia de Vila Frescaínha de S. Pedro"
    },
    {
        "id": 470532,
        "identifier": "01505",
        "lat": 40.4129707,
        "lng": -7.71183155,
        "name": "Continente Bom Dia Seia",
        "country": "PT",
        "city": "Seia",
        "province": "Guarda",
        "streetAndNumber": "Rua Dr. Gaspar Rebelo",
        "zip": "6270-000",
        "businessId": 209756,
        "addressExtra": null
    },
    {
        "id": 470533,
        "identifier": "00295",
        "lat": 40.60234074,
        "lng": -7.76116481,
        "name": "Continente Modelo Mangualde",
        "country": "PT",
        "city": "Mangualde",
        "province": "Viseu",
        "streetAndNumber": "Av. Conde Dom Henrique",
        "zip": "3530-201",
        "businessId": 209756,
        "addressExtra": null
    },
    {
        "id": 470534,
        "identifier": "01008",
        "lat": 41.10201628,
        "lng": -8.55485277,
        "name": "Continente Modelo Avintes",
        "country": "PT",
        "city": "Avintes",
        "province": "Porto",
        "streetAndNumber": "Rua Estádio do Futebol Clube de Avintes",
        "zip": "4430-826",
        "businessId": 209756,
        "addressExtra": null
    },
    {
        "id": 470535,
        "identifier": "00494",
        "lat": 39.91445027,
        "lng": -8.62119963,
        "name": "Continente Modelo Pombal",
        "country": "PT",
        "city": "Pombal",
        "province": "Leiria",
        "streetAndNumber": "R. Dr. Saúl Pires Machado",
        "zip": "3100",
        "businessId": 209756,
        "addressExtra": null
    },
    {
        "id": 470536,
        "identifier": "00003",
        "lat": 38.73773870000001,
        "lng": -9.3991422,
        "name": "Continente Cascais",
        "country": "PT",
        "city": "Alcabideche",
        "province": "Lisboa",
        "streetAndNumber": "Estrada Nacional 9 118",
        "zip": "2645-543",
        "businessId": 209756,
        "addressExtra": null
    },
    {
        "id": 470537,
        "identifier": "00446",
        "lat": 37.13094453,
        "lng": -8.00483198,
        "name": "Continente Loulé",
        "country": "PT",
        "city": "Loulé",
        "province": "Faro",
        "streetAndNumber": "Avenida Manuel Maria Laginha 231",
        "zip": "8100-231",
        "businessId": 209756,
        "addressExtra": "Urbanização Vale das Rãs"
    },
    {
        "id": 470538,
        "identifier": "00940",
        "lat": 41.1979431,
        "lng": -8.49127997,
        "name": "Continente Valongo",
        "country": "PT",
        "city": "Valongo",
        "province": "Porto",
        "streetAndNumber": "Av. do Conhecimento 75",
        "zip": "4440-837",
        "businessId": 209756,
        "addressExtra": "Rua Julião Sarmento 285"
    },
    {
        "id": 470539,
        "identifier": "01702",
        "lat": 41.51429616,
        "lng": -8.44883521,
        "name": "Continente Bom Dia Celeirós",
        "country": "PT",
        "city": "Celeirós",
        "province": "Braga",
        "streetAndNumber": "Av. de São Lourenço",
        "zip": "4705-474",
        "businessId": 209756,
        "addressExtra": "Celeirós (Estrada Nacional 14) Lugar da Cruz"
    },
    {
        "id": 470540,
        "identifier": "00803",
        "lat": 38.52990136,
        "lng": -28.63204118,
        "name": "Continente Modelo Horta",
        "country": "PT",
        "city": "Horta",
        "province": "Açores",
        "streetAndNumber": "Estrada Príncipe Alberto do Mónaco 230",
        "zip": "9900-038",
        "businessId": 209756,
        "addressExtra": "Apartado"
    },
    {
        "id": 470541,
        "identifier": "00309",
        "lat": 38.69598549,
        "lng": -9.30933805,
        "name": "Continente Bom Dia Oeiras",
        "country": "PT",
        "city": "Oeiras",
        "province": "Lisboa",
        "streetAndNumber": "Avenida Embaixador Augusto de Castro 14",
        "zip": "2780-199",
        "businessId": 209756,
        "addressExtra": null
    },
    {
        "id": 470542,
        "identifier": "00219",
        "lat": 41.34232132,
        "lng": -8.49505706,
        "name": "Continente Modelo Santo Tirso",
        "country": "PT",
        "city": "Santo Tirso",
        "province": "Porto",
        "streetAndNumber": "R. Bernardino Alves Barbosa Santarém 140",
        "zip": "4780-140",
        "businessId": 209756,
        "addressExtra": null
    },
    {
        "id": 470543,
        "identifier": "02402",
        "lat": 41.25482084,
        "lng": -8.72091355,
        "name": "Continente Bom Dia Lavra",
        "country": "PT",
        "city": "Lavra",
        "province": "Porto",
        "streetAndNumber": "Rua Professor Ofélia da Cruz Costa 720-740",
        "zip": "4455-137",
        "businessId": 209756,
        "addressExtra": null
    },
    {
        "id": 470544,
        "identifier": "00231",
        "lat": 40.85626221,
        "lng": -8.39563412,
        "name": "Continente Modelo Vale de Cambra",
        "country": "PT",
        "city": "Vale de Cambra",
        "province": "Aveiro",
        "streetAndNumber": "R. da Corredoura",
        "zip": "3730-401",
        "businessId": 209756,
        "addressExtra": "Vila Chã"
    },
    {
        "id": 470546,
        "identifier": "00282",
        "lat": 40.96729403,
        "lng": -8.53738722,
        "name": "Continente Modelo São João de Ver",
        "country": "PT",
        "city": "Aveiro",
        "province": "Aveiro",
        "streetAndNumber": "Rua Shopping 36",
        "zip": "4520-605",
        "businessId": 209756,
        "addressExtra": "São João de Ver, Centro Comercial Suil Parque"
    },
    {
        "id": 470547,
        "identifier": "00261",
        "lat": 40.83061718,
        "lng": -8.48462021,
        "name": "Continente Modelo Oliveira de Azeméis",
        "country": "PT",
        "city": "Oliveira de Azeméis",
        "province": "Aveiro",
        "streetAndNumber": "Avenida Ferreira de Castro",
        "zip": "3720",
        "businessId": 209756,
        "addressExtra": null
    },
    {
        "id": 470548,
        "identifier": "01054",
        "lat": 38.48161634,
        "lng": -9.10471991,
        "name": "Continente Modelo Sesimbra",
        "country": "PT",
        "city": "Sesimbra",
        "province": "Setúbal",
        "streetAndNumber": "Avenida João Paulo II",
        "zip": "2970-866",
        "businessId": 209756,
        "addressExtra": "Estrada Nacional 378, Venda Nova"
    },
    {
        "id": 470549,
        "identifier": "01415",
        "lat": 38.77332376,
        "lng": -9.31644662,
        "name": "Continente Modelo Cacém",
        "country": "PT",
        "city": "Rio de Mouro",
        "province": "Lisboa",
        "streetAndNumber": "Rua Marquês Pombal 25",
        "zip": "2635-600",
        "businessId": 209756,
        "addressExtra": null
    },
    {
        "id": 470550,
        "identifier": "00279",
        "lat": 40.15515121,
        "lng": -7.49566514,
        "name": "Continente Modelo Fundão",
        "country": "PT",
        "city": "Fundão",
        "province": "Castelo Branco",
        "streetAndNumber": "Rua Cidade da Covilhã",
        "zip": "6230-298",
        "businessId": 209756,
        "addressExtra": null
    },
    {
        "id": 470551,
        "identifier": "03573",
        "lat": 39.01530866,
        "lng": -7.07463531,
        "name": "Continente Bom Dia Campo Maior",
        "country": "PT",
        "city": "Portalegre",
        "province": "Portalegre",
        "streetAndNumber": "Estrada Nacional 371",
        "zip": "7370-201",
        "businessId": 209756,
        "addressExtra": "Prado da Fonte Nova"
    },
    {
        "id": 470552,
        "identifier": "00307",
        "lat": 41.180912,
        "lng": -8.654984,
        "name": "Continente Bom Dia NorteShopping",
        "country": "PT",
        "city": "Matosinhos",
        "province": "Porto",
        "streetAndNumber": "Rua Sara Afonso 105-117",
        "zip": "4460-841",
        "businessId": 209756,
        "addressExtra": null
    },
    {
        "id": 470553,
        "identifier": "00322",
        "lat": 38.75847911,
        "lng": -9.23440372,
        "name": "Continente Bom Dia Amadora",
        "country": "PT",
        "city": "Lisboa",
        "province": "Lisbon",
        "streetAndNumber": "Largo Dr. Dário Gandra Nunes 3-3A",
        "zip": "2700-279",
        "businessId": 209756,
        "addressExtra": null
    },
    {
        "id": 470554,
        "identifier": "00232",
        "lat": 38.79934434,
        "lng": -9.32629197,
        "name": "Continente Modelo Tapada das Mercês",
        "country": "PT",
        "city": "Algueirão-Mem Martins",
        "province": "Lisbon",
        "streetAndNumber": "Av. Embaixador Aristides Sousa Mendes",
        "zip": "2725-537",
        "businessId": 209756,
        "addressExtra": "Freguesia de Algueirão-Mem Martins"
    },
    {
        "id": 470555,
        "identifier": "00228",
        "lat": 41.206361,
        "lng": -8.56083952,
        "name": "Continente Modelo Maia",
        "country": "PT",
        "city": "Águas Santas",
        "province": "Porto",
        "streetAndNumber": "Avenida Lidador da Maia",
        "zip": "4425-116",
        "businessId": 209756,
        "addressExtra": "Águas Santas, 116"
    },
    {
        "id": 470556,
        "identifier": "00210",
        "lat": 40.890163,
        "lng": -8.49185,
        "name": "Continente São João da Madeira",
        "country": "PT",
        "city": "São João da Madeira",
        "province": "Aveiro",
        "streetAndNumber": "Avenida Doutor Renato Araújo 1625",
        "zip": "3700-346",
        "businessId": 209756,
        "addressExtra": null
    },
    {
        "id": 470557,
        "identifier": "03585",
        "lat": 39.4615893,
        "lng": -8.4637215,
        "name": "Continente Bom Dia Entroncamento",
        "country": "PT",
        "city": "Entroncamento",
        "province": "Santarém",
        "streetAndNumber": "Avenida José Eduardo Vitor das Neves",
        "zip": "2330-066",
        "businessId": 209756,
        "addressExtra": null
    },
    {
        "id": 470558,
        "identifier": "02618",
        "lat": 41.18561726,
        "lng": -8.63117508,
        "name": "Continente Bom Dia Padrão da Légua",
        "country": "PT",
        "city": "São Mamede de Infesta",
        "province": "Porto",
        "streetAndNumber": "Rua Nova do Seixo 689",
        "zip": "4460-384",
        "businessId": 209756,
        "addressExtra": null
    },
    {
        "id": 470559,
        "identifier": "00327",
        "lat": 38.749879,
        "lng": -9.204775,
        "name": "Continente Bom Dia Benfica",
        "country": "PT",
        "city": "Benfica",
        "province": "Lisboa",
        "streetAndNumber": "Rua Olivério Serpa LT1",
        "zip": "1500-471",
        "businessId": 209756,
        "addressExtra": "Benfica"
    },
    {
        "id": 470560,
        "identifier": "01050",
        "lat": 41.57927405,
        "lng": -8.42897198,
        "name": "Continente Braga Nova Arcada",
        "country": "PT",
        "city": "Braga",
        "province": "Braga",
        "streetAndNumber": "Avenida do Cávado 134",
        "zip": "4700-084",
        "businessId": 209756,
        "addressExtra": null
    },
    {
        "id": 470561,
        "identifier": "00462",
        "lat": 38.69379372,
        "lng": -8.94243159,
        "name": "Continente Montijo",
        "country": "PT",
        "city": "Montijo",
        "province": "Setúbal",
        "streetAndNumber": "Rua da Azinheira",
        "zip": "2870-500",
        "businessId": 209756,
        "addressExtra": "Zona Industrial Pau Queimado, Afonsoeiro"
    },
    {
        "id": 470562,
        "identifier": "00471",
        "lat": 40.63510336,
        "lng": -7.84453542,
        "name": "Continente Modelo Retail Park Viseu",
        "country": "PT",
        "city": "Viseu",
        "province": "Viseu",
        "streetAndNumber": "Av. Fortes da Gama 16",
        "zip": "3505-639",
        "businessId": 209756,
        "addressExtra": "Quinta da Magarenha"
    },
    {
        "id": 470563,
        "identifier": "04351",
        "lat": 40.90150523,
        "lng": -7.93480132,
        "name": "Continente Bom Dia Castro Daire",
        "country": "PT",
        "city": "Castro Daire",
        "province": "Viseu",
        "streetAndNumber": "Av. 25 de Abril",
        "zip": "3600-124",
        "businessId": 209756,
        "addressExtra": null
    },
    {
        "id": 470564,
        "identifier": "00226",
        "lat": 41.09726531,
        "lng": -8.59818505,
        "name": "Continente Modelo Gaia (Rechousa)",
        "country": "PT",
        "city": "Rechousa",
        "province": "Porto",
        "streetAndNumber": "Rua Alto das Torres 891",
        "zip": "4430-010",
        "businessId": 209756,
        "addressExtra": "Mafamude"
    },
    {
        "id": 470565,
        "identifier": "01700",
        "lat": 37.07462075,
        "lng": -8.09563321,
        "name": "Continente Modelo Quarteira",
        "country": "PT",
        "city": "Quarteira",
        "province": "Faro",
        "streetAndNumber": "Avenida de Ceuta",
        "zip": "8125-303",
        "businessId": 209756,
        "addressExtra": "lote 1, Local dos Cavacos"
    },
    {
        "id": 470566,
        "identifier": "00246",
        "lat": 38.81382327,
        "lng": -9.36205041,
        "name": "Continente Modelo Sintra/Lourel",
        "country": "PT",
        "city": "Lourel",
        "province": "Lisboa",
        "streetAndNumber": "Estrada da Cavaleira 1",
        "zip": "2710-140",
        "businessId": 209756,
        "addressExtra": null
    },
    {
        "id": 470567,
        "identifier": "00289",
        "lat": 38.89071706,
        "lng": -9.04222889,
        "name": "Continente Modelo Alverca",
        "country": "PT",
        "city": "Alverca do Ribatejo",
        "province": "Lisboa",
        "streetAndNumber": "N10",
        "zip": "2615-382",
        "businessId": 209756,
        "addressExtra": "10 Km,Estrada Nacional,Rua António Ferreira do Carmo"
    },
    {
        "id": 470568,
        "identifier": "00325",
        "lat": 41.11326085,
        "lng": -8.59050087,
        "name": "Continente Bom Dia Boucinhas",
        "country": "PT",
        "city": "Vila Nova de Gaia",
        "province": "Porto",
        "streetAndNumber": "Av. Vasco da Gama",
        "zip": "4430-247",
        "businessId": 209756,
        "addressExtra": "Lugar de Boucinhas"
    },
    {
        "id": 470569,
        "identifier": "00235",
        "lat": 41.17447025,
        "lng": -8.55534852,
        "name": "Continente Modelo Rio Tinto",
        "country": "PT",
        "city": "Rio Tinto",
        "province": "Porto",
        "streetAndNumber": "Avenida Doutor Domingos Gonçalves de Sá",
        "zip": "4435-213",
        "businessId": 209756,
        "addressExtra": null
    },
    {
        "id": 470570,
        "identifier": "01056",
        "lat": 41.32446508,
        "lng": -8.14928191,
        "name": "Continente Modelo Lixa",
        "country": "PT",
        "city": "Vila Cova de Lixa",
        "province": "Porto",
        "streetAndNumber": "Av. Dr. Machado de Matos",
        "zip": "4615",
        "businessId": 209756,
        "addressExtra": null
    },
    {
        "id": 470571,
        "identifier": "00280",
        "lat": 41.44399217,
        "lng": -8.16568224,
        "name": "Continente Modelo Fafe",
        "country": "PT",
        "city": "Fafe",
        "province": "Braga",
        "streetAndNumber": "Via Circular",
        "zip": "4820-273",
        "businessId": 209756,
        "addressExtra": "Quinchães"
    },
    {
        "id": 470572,
        "identifier": "02076",
        "lat": 38.80732929,
        "lng": -9.22782569,
        "name": "Continente Bom Dia Caneças",
        "country": "PT",
        "city": "Lisboa",
        "province": "Lisboa",
        "streetAndNumber": "Rua Coronel João Brás de Oliveira",
        "zip": "1658-581",
        "businessId": 209756,
        "addressExtra": "Caneças"
    },
    {
        "id": 470573,
        "identifier": "00214",
        "lat": 39.60208706,
        "lng": -8.39768488,
        "name": "Continente Modelo Tomar",
        "country": "PT",
        "city": "Tomar",
        "province": "Santarém",
        "streetAndNumber": "Lugar Santa Cruz",
        "zip": "2300-410",
        "businessId": 209756,
        "addressExtra": null
    },
    {
        "id": 470574,
        "identifier": "00253",
        "lat": 38.63834052,
        "lng": -9.04820648,
        "name": "Continente Modelo Barreiro",
        "country": "PT",
        "city": "Barreiro",
        "province": "Setúbal",
        "streetAndNumber": "R. Santo António",
        "zip": "2830",
        "businessId": 209756,
        "addressExtra": "32, Alto do Romão lote, Quinta da Lomba, Santo André"
    },
    {
        "id": 470575,
        "identifier": "00241",
        "lat": 39.83315592,
        "lng": -7.49538316,
        "name": "Continente Modelo Castelo Branco",
        "country": "PT",
        "city": "Castelo Branco",
        "province": "Castelo Branco",
        "streetAndNumber": "Av. da Europa",
        "zip": "6000-145",
        "businessId": 209756,
        "addressExtra": "Quinta da Taipa"
    },
    {
        "id": 470576,
        "identifier": "00255",
        "lat": 38.6196861,
        "lng": -8.91396656,
        "name": "Continente Modelo Pinhal Novo",
        "country": "PT",
        "city": "Pinhal Novo",
        "province": "Setúbal",
        "streetAndNumber": "Rua Gago Coutinho e Sacadura Cabral",
        "zip": "2955-189",
        "businessId": 209756,
        "addressExtra": "N252, Lugar da Cascalheira"
    },
    {
        "id": 470577,
        "identifier": "04121",
        "lat": 39.87038677,
        "lng": -8.9397751,
        "name": "Continente Bom Dia Vieira de Leiria",
        "country": "PT",
        "city": "Marinha Grande",
        "province": "Leiria",
        "streetAndNumber": "R. Manuel Dinis Parreira",
        "zip": "2430-725",
        "businessId": 209756,
        "addressExtra": null
    },
    {
        "id": 470578,
        "identifier": "00465",
        "lat": 40.21162926,
        "lng": -8.44307536,
        "name": "Continente Fórum Coimbra",
        "country": "PT",
        "city": "Coimbra",
        "province": "Coimbra",
        "streetAndNumber": "Avenida José Bonifácio de Andrade e Silva 1",
        "zip": "3040-389",
        "businessId": 209756,
        "addressExtra": null
    },
    {
        "id": 470579,
        "identifier": "00269",
        "lat": 39.73505066,
        "lng": -8.93409442,
        "name": "Continente Modelo Marinha Grande",
        "country": "PT",
        "city": "Marinha Grande",
        "province": "Leiria",
        "streetAndNumber": "Av. Dr. José Henriques Vareda 122",
        "zip": "2430-308",
        "businessId": 209756,
        "addressExtra": null
    },
    {
        "id": 470580,
        "identifier": "00263",
        "lat": 42.07278168,
        "lng": -8.4967099,
        "name": "Continente Modelo Monção",
        "country": "PT",
        "city": "Viana do Castelo",
        "province": "Viana do Castelo",
        "streetAndNumber": "Avenida da Boavista",
        "zip": "4950-855",
        "businessId": 209756,
        "addressExtra": "Monção, Veiga Velha - Cortes"
    },
    {
        "id": 470581,
        "identifier": "00209",
        "lat": 41.70426889,
        "lng": -8.81477943,
        "name": "Continente Viana do Castelo",
        "country": "PT",
        "city": "Viana do Castelo",
        "province": "Viana do Castelo",
        "streetAndNumber": "R. do Ameal",
        "zip": "4900-204",
        "businessId": 209756,
        "addressExtra": "Meadela"
    },
    {
        "id": 470582,
        "identifier": "00379",
        "lat": 38.78874079,
        "lng": -9.33978379,
        "name": "Continente Modelo Mem Martins",
        "country": "PT",
        "city": "Algueirão-Mem Martins",
        "province": "Lisboa",
        "streetAndNumber": "R. António Feijó",
        "zip": "2725-397",
        "businessId": 209756,
        "addressExtra": "Com a rua dos Casais"
    },
    {
        "id": 470584,
        "identifier": "00212",
        "lat": 40.27114983,
        "lng": -7.50235745,
        "name": "Continente Covilhã",
        "country": "PT",
        "city": "Covilhã",
        "province": "Castelo Branco",
        "streetAndNumber": "Alameda da Europe",
        "zip": "6200-546",
        "businessId": 209756,
        "addressExtra": "Serra Shopping, Quinta do Pinheiro"
    },
    {
        "id": 470585,
        "identifier": "00206",
        "lat": 38.71070345,
        "lng": -8.98788873,
        "name": "Continente Modelo Montijo",
        "country": "PT",
        "city": "Montijo",
        "province": "Setúbal",
        "streetAndNumber": "Estrada Circular",
        "zip": "2870-152",
        "businessId": 209756,
        "addressExtra": "Lugar do Arneiro 22"
    },
    {
        "id": 470586,
        "identifier": "04420",
        "lat": 41.17661874,
        "lng": -8.64761586,
        "name": "Continente Bom Dia Via Rápida (Porto)",
        "country": "PT",
        "city": "Porto",
        "province": "Porto",
        "streetAndNumber": "Rua Engenheiro Ferreira Dias 954",
        "zip": "4149-008",
        "businessId": 209756,
        "addressExtra": null
    },
    {
        "id": 470587,
        "identifier": "00238",
        "lat": 39.16611931,
        "lng": -8.77940787,
        "name": "Continente Modelo Cartaxo",
        "country": "PT",
        "city": "Cartaxo",
        "province": "Santarém",
        "streetAndNumber": "N3",
        "zip": "2070-621",
        "businessId": 209756,
        "addressExtra": null
    },
    {
        "id": 470588,
        "identifier": "00319",
        "lat": 41.15500208,
        "lng": -8.66362346,
        "name": "Continente Bom Dia Foz",
        "country": "PT",
        "city": "Porto",
        "province": "Porto",
        "streetAndNumber": "Rua João de Barros 265",
        "zip": "4150-414",
        "businessId": 209756,
        "addressExtra": null
    },
    {
        "id": 470590,
        "identifier": "00299",
        "lat": 41.759746,
        "lng": -8.585808,
        "name": "Continente Modelo Ponte de Lima",
        "country": "PT",
        "city": "Ponte de Lima",
        "province": "Viana do Castelo",
        "streetAndNumber": "Rua Conde de Aurora",
        "zip": "4990-035",
        "businessId": 209756,
        "addressExtra": null
    },
    {
        "id": 470591,
        "identifier": "01504",
        "lat": 41.17065221,
        "lng": -8.63542322,
        "name": "Continente Bom Dia Ramalde",
        "country": "PT",
        "city": "Porto",
        "province": "Porto",
        "streetAndNumber": "Rua João dos Santos Ferreira",
        "zip": "4250-507",
        "businessId": 209756,
        "addressExtra": "lote 43"
    },
    {
        "id": 470592,
        "identifier": "00223",
        "lat": 39.08061198,
        "lng": -9.26007282,
        "name": "Continente Modelo Torres Vedras",
        "country": "PT",
        "city": "Torres Vedras",
        "province": "Lisboa",
        "streetAndNumber": "Rua António Leal D'ascenção",
        "zip": "2560-000",
        "businessId": 209756,
        "addressExtra": "Freguesia S. Pedro, Urbanização da Conquinha"
    },
    {
        "id": 470593,
        "identifier": "00805",
        "lat": 38.72858158,
        "lng": -27.06731453,
        "name": "Continente Modelo Praia da Vitória",
        "country": "PT",
        "city": "Praia da Vitória",
        "province": "Açores",
        "streetAndNumber": "Estrada da Circunvalação",
        "zip": "9760-400",
        "businessId": 209756,
        "addressExtra": "Praia da Vitória"
    },
    {
        "id": 470594,
        "identifier": "00245",
        "lat": 41.5612033,
        "lng": -8.44919892,
        "name": "Continente Modelo Braga",
        "country": "PT",
        "city": "Braga",
        "province": "Braga",
        "streetAndNumber": "Rua de Seara",
        "zip": "4700-154",
        "businessId": 209756,
        "addressExtra": "Feital, Frossos"
    },
    {
        "id": 470595,
        "identifier": "00439",
        "lat": 38.94452368,
        "lng": -9.35546896,
        "name": "Continente Mafra",
        "country": "PT",
        "city": "Mafra",
        "province": "Lisboa",
        "streetAndNumber": "Rua Professor Armindo Ayres de Carvalho 11",
        "zip": "2640-453",
        "businessId": 209756,
        "addressExtra": null
    },
    {
        "id": 470596,
        "identifier": "00329",
        "lat": 41.69462073,
        "lng": -8.83261985,
        "name": "Continente Bom Dia Viana do Castelo",
        "country": "PT",
        "city": "Viana do Castelo",
        "province": "Viana do Castelo",
        "streetAndNumber": "Rua General Humberto Delgado 101",
        "zip": "4900-317",
        "businessId": 209756,
        "addressExtra": null
    },
    {
        "id": 470597,
        "identifier": "00007",
        "lat": 38.61308663,
        "lng": -9.10355549,
        "name": "Continente Seixal",
        "country": "PT",
        "city": "Seixal",
        "province": "Setúbal",
        "streetAndNumber": "Av. Libertadores de Timor Loro Sae 10",
        "zip": "2840-293",
        "businessId": 209756,
        "addressExtra": "RioSul Shopping"
    },
    {
        "id": 470598,
        "identifier": "04321",
        "lat": 38.96392805,
        "lng": -9.41281301,
        "name": "Continente Bom Dia Ericeira",
        "country": "PT",
        "city": "Ericeira",
        "province": "Lisboa",
        "streetAndNumber": "Urbanização Quinta Ribeira da Baleia",
        "zip": "2655-350",
        "businessId": 209756,
        "addressExtra": null
    },
    {
        "id": 470599,
        "identifier": "00806",
        "lat": 37.820442,
        "lng": -25.527267,
        "name": "Continente Modelo Ribeira Grande",
        "country": "PT",
        "city": "Ponta Delgada",
        "province": "Açores",
        "streetAndNumber": "Rua Adolfo Coutinho de Medeiros",
        "zip": "9600-516",
        "businessId": 209756,
        "addressExtra": "Ribeira Grande"
    },
    {
        "id": 470600,
        "identifier": "02400",
        "lat": 40.2514534,
        "lng": -8.43006592,
        "name": "Continente Modelo Coimbra - Eiras",
        "country": "PT",
        "city": "Coimbra",
        "province": "Coimbra",
        "streetAndNumber": "R. Barca Ribeira de Eiras",
        "zip": "3020-497",
        "businessId": 209756,
        "addressExtra": "Coimbra Retail Park"
    },
    {
        "id": 470601,
        "identifier": "02085",
        "lat": 32.72057967,
        "lng": -16.76901337,
        "name": "Continente Modelo Machico Centro",
        "country": "PT",
        "city": "Machico",
        "province": "Madeira",
        "streetAndNumber": "R. do Ribeirinho 47-49",
        "zip": "9200-102",
        "businessId": 209756,
        "addressExtra": "Machico"
    },
    {
        "id": 470602,
        "identifier": "02082",
        "lat": 32.678645,
        "lng": -17.058575,
        "name": "Continente Modelo Ribeira Brava Centro",
        "country": "PT",
        "city": "Ribeira Brava",
        "province": "Madeira",
        "streetAndNumber": "Rua dos Dragoeiros 59",
        "zip": "9350-150",
        "businessId": 209756,
        "addressExtra": null
    },
    {
        "id": 470603,
        "identifier": "03395",
        "lat": 38.00966807,
        "lng": -8.69280189,
        "name": "Continente Bom Dia Santiago do Cacém",
        "country": "PT",
        "city": "Santiago do Cacém",
        "province": "Setúbal",
        "streetAndNumber": "Avenida Dom Nuno Alvares Pereira",
        "zip": "7540-103",
        "businessId": 209756,
        "addressExtra": null
    },
    {
        "id": 470604,
        "identifier": "03386",
        "lat": 38.98264733,
        "lng": -9.08034124,
        "name": "Continente Bom Dia Arruda dos Vinhos",
        "country": "PT",
        "city": "Arruda dos Vinhos",
        "province": "Lisboa",
        "streetAndNumber": "Avenida Engenheiro Adriano Brito da Conceição",
        "zip": "2630-299",
        "businessId": 209756,
        "addressExtra": null
    },
    {
        "id": 470605,
        "identifier": "01981",
        "lat": 38.75130485,
        "lng": -9.30120927,
        "name": "Continente Bom Dia São Marcos",
        "country": "PT",
        "city": "São Marcos",
        "province": "Lisboa",
        "streetAndNumber": "Estrada de São Marcos",
        "zip": "2735-529",
        "businessId": 209756,
        "addressExtra": null
    },
    {
        "id": 470606,
        "identifier": "01902",
        "lat": 38.90241277,
        "lng": -9.04039131,
        "name": "Continente Bom Dia Alverca",
        "country": "PT",
        "city": "Lisboa",
        "province": "Lisbon",
        "streetAndNumber": "Estr. Arcena 2",
        "zip": "2315-009",
        "businessId": 209756,
        "addressExtra": null
    },
    {
        "id": 470607,
        "identifier": "00807",
        "lat": 37.74622281,
        "lng": -25.58471318,
        "name": "Continente Modelo Lagoa",
        "country": "PT",
        "city": "Lagoa",
        "province": "Açores",
        "streetAndNumber": "Avenida Eng. Luís Alberto Mei. Martins Mota",
        "zip": "9560-414",
        "businessId": 209756,
        "addressExtra": "Estr. Regional da Atalhada,R. Direita"
    },
    {
        "id": 470608,
        "identifier": "01908",
        "lat": 38.86430052,
        "lng": -9.07182897,
        "name": "Continente Bom Dia Póvoa de Santa Iria",
        "country": "PT",
        "city": "Póvoa de Santa Iria",
        "province": "Lisboa",
        "streetAndNumber": "Rua Américo Costa",
        "zip": "2625-173",
        "businessId": 209756,
        "addressExtra": "Quinta da Piedade"
    },
    {
        "id": 470609,
        "identifier": "01055",
        "lat": 41.17891726,
        "lng": -7.79414982,
        "name": "Continente Modelo Régua",
        "country": "PT",
        "city": "Peso da Régua",
        "province": "Vila Real",
        "streetAndNumber": "R. de Lousada",
        "zip": "5050-106",
        "businessId": 209756,
        "addressExtra": "Quinta dos Montes, Freguesia de Godim"
    },
    {
        "id": 470610,
        "identifier": "00375",
        "lat": 39.26298647,
        "lng": -9.15245,
        "name": "Continente Modelo Bombarral",
        "country": "PT",
        "city": "Bombarral",
        "province": "Leiria",
        "streetAndNumber": "N361",
        "zip": "2540-095",
        "businessId": 209756,
        "addressExtra": "Zona das Actividades Económicas de Comercio"
    },
    {
        "id": 470611,
        "identifier": "00461",
        "lat": 38.818412,
        "lng": -9.174638,
        "name": "Continente Loures",
        "country": "PT",
        "city": "Loures",
        "province": "Lisboa",
        "streetAndNumber": "Quinta Casal de Pipa EN 250",
        "zip": "2670-339",
        "businessId": 209756,
        "addressExtra": null
    },
    {
        "id": 470612,
        "identifier": "00291",
        "lat": 38.85511305,
        "lng": -7.58132553,
        "name": "Continente Modelo Estremoz",
        "country": "PT",
        "city": "Estremoz",
        "province": "Évora",
        "streetAndNumber": "IP2",
        "zip": "7100-055",
        "businessId": 209756,
        "addressExtra": "Quinta do Carmo, Freguesia de Santa Maria"
    },
    {
        "id": 470613,
        "identifier": "00847",
        "lat": 32.65332454,
        "lng": -16.84189574,
        "name": "Continente Modelo Caniço",
        "country": "PT",
        "city": "Caniço",
        "province": "Madeira",
        "streetAndNumber": "Estrada João Gonçalves Zarco",
        "zip": "9125-011",
        "businessId": 209756,
        "addressExtra": "Edifício Caniço Shopping"
    },
    {
        "id": 470614,
        "identifier": "03609",
        "lat": 40.80862986,
        "lng": -8.57751627,
        "name": "Continente Bom Dia Avanca",
        "country": "PT",
        "city": "Avanca",
        "province": "Aveiro",
        "streetAndNumber": "Rua João Dias Nunes 15",
        "zip": "3860-157",
        "businessId": 209756,
        "addressExtra": "Quinta do Outeiro"
    },
    {
        "id": 470615,
        "identifier": "00242",
        "lat": 41.28346538,
        "lng": -8.35770586,
        "name": "Continente Modelo Paços de Ferreira",
        "country": "PT",
        "city": "Carvalhosa",
        "province": "Porto",
        "streetAndNumber": "Travessa de São Domingos",
        "zip": "4590-136",
        "businessId": 209756,
        "addressExtra": null
    },
    {
        "id": 470616,
        "identifier": "00312",
        "lat": 38.71763125,
        "lng": -9.15677794,
        "name": "Continente Bom Dia Santa Quitéria",
        "country": "PT",
        "city": "Lisboa",
        "province": "Lisboa",
        "streetAndNumber": "Travessa de Santa Quitéria 38",
        "zip": "1250-212",
        "businessId": 209756,
        "addressExtra": null
    },
    {
        "id": 470617,
        "identifier": "00294",
        "lat": 38.53819541,
        "lng": -8.86626719,
        "name": "Continente Modelo Setúbal",
        "country": "PT",
        "city": "Setúbal",
        "province": "Setúbal",
        "streetAndNumber": "Estrada de Algeruz",
        "zip": "2910-272",
        "businessId": 209756,
        "addressExtra": "Quinta da Caiada"
    },
    {
        "id": 470618,
        "identifier": "03464",
        "lat": 38.67217019,
        "lng": -8.46696567,
        "name": "Continente Bom Dia Vendas Novas",
        "country": "PT",
        "city": "Vendas Novas",
        "province": "Évora",
        "streetAndNumber": "Avenida 25 de Abril",
        "zip": "7080-138",
        "businessId": 209756,
        "addressExtra": null
    },
    {
        "id": 470619,
        "identifier": "00275",
        "lat": 40.34848612,
        "lng": -8.58056919,
        "name": "Continente Modelo Cantanhede",
        "country": "PT",
        "city": "Cantanhede",
        "province": "Coimbra",
        "streetAndNumber": "Rua Chão do Conde",
        "zip": "3060-127",
        "businessId": 209756,
        "addressExtra": null
    },
    {
        "id": 470620,
        "identifier": "00320",
        "lat": 38.75715913,
        "lng": -9.26843353,
        "name": "Continente Bom Dia Queluz Ocidental",
        "country": "PT",
        "city": "Queluz",
        "province": "Lisboa",
        "streetAndNumber": "Praceta Simões de Almeida Júnior 13",
        "zip": "2745-332",
        "businessId": 209756,
        "addressExtra": null
    },
    {
        "id": 470621,
        "identifier": "03332",
        "lat": 39.40907439,
        "lng": -8.48455823,
        "name": "Continente Bom Dia Golegã",
        "country": "PT",
        "city": "Golegã",
        "province": "Santarém",
        "streetAndNumber": "Rua Manuel Barreto",
        "zip": "2150-154",
        "businessId": 209756,
        "addressExtra": null
    },
    {
        "id": 470622,
        "identifier": "00801",
        "lat": 37.74791377,
        "lng": -25.67584734,
        "name": "Continente Modelo Ponta Delgada",
        "country": "PT",
        "city": "Ponta Delgada",
        "province": "Açores",
        "streetAndNumber": "Rua da Juventude 38",
        "zip": "9500-211",
        "businessId": 209756,
        "addressExtra": null
    },
    {
        "id": 470623,
        "identifier": "02083",
        "lat": 32.64977506,
        "lng": -16.90591693,
        "name": "Continente Modelo Seminário",
        "country": "PT",
        "city": "Seminário",
        "province": "Madeira",
        "streetAndNumber": "Rua do Seminário 9",
        "zip": "9050-022",
        "businessId": 209756,
        "addressExtra": null
    },
    {
        "id": 470624,
        "identifier": "00008",
        "lat": 41.43985419,
        "lng": -8.30352621,
        "name": "Continente Guimarães",
        "country": "PT",
        "city": "Guimarães",
        "province": "Braga",
        "streetAndNumber": "Alameda Dr. Mariano Felgueiras",
        "zip": "4805-075",
        "businessId": 209756,
        "addressExtra": "Creixomil"
    },
    {
        "id": 470625,
        "identifier": "00240",
        "lat": 38.97737764,
        "lng": -8.97774243,
        "name": "Continente Modelo Vila Franca de Xira",
        "country": "PT",
        "city": "Lisboa",
        "province": "Lisboa",
        "streetAndNumber": "Autoestrada do Norte",
        "zip": "2600-723",
        "businessId": 209756,
        "addressExtra": "Castanheira do Ribatejo. Vila Franca de Xira"
    },
    {
        "id": 470626,
        "identifier": "00217",
        "lat": 38.55778551,
        "lng": -7.92092189,
        "name": "Continente Évora",
        "country": "PT",
        "city": "Évora",
        "province": "Évora",
        "streetAndNumber": "Quinta do Moniz",
        "zip": "7000-172",
        "businessId": 209756,
        "addressExtra": null
    },
    {
        "id": 470627,
        "identifier": "01051",
        "lat": 37.13016061,
        "lng": -7.63810855,
        "name": "Continente Tavira",
        "country": "PT",
        "city": "Tavira",
        "province": "Faro",
        "streetAndNumber": "Rua Almirante Cândido dos Reis 247",
        "zip": "8800-318",
        "businessId": 209756,
        "addressExtra": null
    },
    {
        "id": 470628,
        "identifier": "00464",
        "lat": 38.7648529,
        "lng": -9.1755154,
        "name": "Continente Telheiras",
        "country": "PT",
        "city": "Lisboa",
        "province": "Lisboa",
        "streetAndNumber": "Avenida das Nações Unidas",
        "zip": "1600-528",
        "businessId": 209756,
        "addressExtra": "Telheiras"
    },
    {
        "id": 470629,
        "identifier": "00256",
        "lat": 38.56292199,
        "lng": -9.03694301,
        "name": "Continente Modelo Quinta do Conde",
        "country": "PT",
        "city": "Quinta do Conde",
        "province": "Setúbal",
        "streetAndNumber": "Avenida Norton de Matos",
        "zip": "2975-333",
        "businessId": 209756,
        "addressExtra": "lote 85, Urbanização Cova dos Vidros"
    },
    {
        "id": 470630,
        "identifier": "00468",
        "lat": 39.46188404,
        "lng": -8.53264855,
        "name": "Continente Torres Novas",
        "country": "PT",
        "city": "Freguesia de Santa Maria",
        "province": "Santarém",
        "streetAndNumber": "R. da Tonova",
        "zip": "2350-484",
        "businessId": 209756,
        "addressExtra": "Torres Novas, Quinta das Ferrarias"
    },
    {
        "id": 470631,
        "identifier": "00315",
        "lat": 41.23344688,
        "lng": -8.62140818,
        "name": "Continente Bom Dia Maia",
        "country": "PT",
        "city": "Maia",
        "province": "Porto",
        "streetAndNumber": "R. Eng. Duarte Pacheco",
        "zip": "4470-202",
        "businessId": 209756,
        "addressExtra": "Plaza Center, Loja 26"
    },
    {
        "id": 470632,
        "identifier": "04228",
        "lat": 41.807563,
        "lng": -8.42286736,
        "name": "Continente Bom Dia Ponte da Barca",
        "country": "PT",
        "city": "Pte. da Barca",
        "province": "Viana do Castelo",
        "streetAndNumber": "N203",
        "zip": "4980-614",
        "businessId": 209756,
        "addressExtra": "Casal, Freguesia de Oleiros Km 203"
    },
    {
        "id": 470633,
        "identifier": "00208",
        "lat": 37.13842489,
        "lng": -8.03083711,
        "name": "Continente Modelo Loulé",
        "country": "PT",
        "city": "Loulé",
        "province": "Faro",
        "streetAndNumber": "Rua Engenheiro Duarte Pacheco",
        "zip": "8100-390",
        "businessId": 209756,
        "addressExtra": "S. Sebastião"
    },
    {
        "id": 470634,
        "identifier": "00244",
        "lat": 41.3697005,
        "lng": -8.74473675,
        "name": "Continente Modelo Vila do Conde",
        "country": "PT",
        "city": "Vila do Conde",
        "province": "Porto",
        "streetAndNumber": "Avenida General Humberto Delgado",
        "zip": "4480-776",
        "businessId": 209756,
        "addressExtra": "Lugar do Casal do Monte, Regufe"
    },
    {
        "id": 470635,
        "identifier": "00218",
        "lat": 39.27776082,
        "lng": -7.43166192,
        "name": "Continente Modelo Portalegre",
        "country": "PT",
        "city": "Portalegre",
        "province": "Portalegre",
        "streetAndNumber": "Rua do Joinal",
        "zip": "7300-526",
        "businessId": 209756,
        "addressExtra": null
    },
    {
        "id": 470636,
        "identifier": "00842",
        "lat": 32.64741567,
        "lng": -16.85951635,
        "name": "Continente Modelo Cancela",
        "country": "PT",
        "city": "Cancela",
        "province": "Madeira",
        "streetAndNumber": "Caminho da Cancela",
        "zip": "9050-299",
        "businessId": 209756,
        "addressExtra": "São Gonçalo"
    },
    {
        "id": 470637,
        "identifier": "00009",
        "lat": 38.75474417,
        "lng": -9.1900411,
        "name": "Continente Colombo",
        "country": "PT",
        "city": "Lisboa",
        "province": "Lisboa",
        "streetAndNumber": "Av. Lusíada",
        "zip": "1500-392",
        "businessId": 209756,
        "addressExtra": "Centro Colombo"
    },
    {
        "id": 470638,
        "identifier": "00334",
        "lat": 41.3666319,
        "lng": -8.54537238,
        "name": "Continente Modelo Famalicão",
        "country": "PT",
        "city": "Braga",
        "province": "Braga",
        "streetAndNumber": "Lugar do Xisto",
        "zip": "4760-727",
        "businessId": 209756,
        "addressExtra": "Parque Comercial Largo Discount, Vila Nova de Famalicão"
    },
    {
        "id": 470639,
        "identifier": "04552",
        "lat": 41.1165275,
        "lng": -8.66193325,
        "name": "Continente Bom Dia Canidelo",
        "country": "PT",
        "city": "Vila Nova de Gaia",
        "province": "Porto",
        "streetAndNumber": "Avenida da Beira-Mar 2263",
        "zip": "4400-382",
        "businessId": 209756,
        "addressExtra": null
    },
    {
        "id": 470640,
        "identifier": "00273",
        "lat": 41.27135998,
        "lng": -8.28336394,
        "name": "Continente Modelo Lousada",
        "country": "PT",
        "city": "Lousada",
        "province": "Porto",
        "streetAndNumber": "Av. Hans Isler 317",
        "zip": "4620-134",
        "businessId": 209756,
        "addressExtra": "Lugar das Arcas"
    },
    {
        "id": 470641,
        "identifier": "00249",
        "lat": 41.15482486,
        "lng": -8.52950124,
        "name": "Continente Modelo Fânzeres",
        "country": "PT",
        "city": "Porto",
        "province": "Porto",
        "streetAndNumber": "Rua Nova de Santa Eulália 300-326",
        "zip": "4510-570",
        "businessId": 209756,
        "addressExtra": "Fânzeres"
    },
    {
        "id": 470642,
        "identifier": "00323",
        "lat": 38.76264929,
        "lng": -9.27570398,
        "name": "Continente Bom Dia Massamá Norte",
        "country": "PT",
        "city": "Belas",
        "province": "Lisboa",
        "streetAndNumber": "Rua Dona Maria Ana de Austria",
        "zip": "2605-663",
        "businessId": 209756,
        "addressExtra": "Casal Barota, Urb. Massamá Norte, Massamá"
    },
    {
        "id": 470643,
        "identifier": "00202",
        "lat": 37.13350504,
        "lng": -8.5445675,
        "name": "Continente Portimão",
        "country": "PT",
        "city": "Portimão",
        "province": "Faro",
        "streetAndNumber": "Av. São Lourenço da Barrosa 124",
        "zip": "8500-510",
        "businessId": 209756,
        "addressExtra": "Quinta da Malata, Lote 1"
    },
    {
        "id": 470644,
        "identifier": "00314",
        "lat": 41.19892191,
        "lng": -8.71012118,
        "name": "Continente Bom Dia Leça da Palmeira",
        "country": "PT",
        "city": "Porto",
        "province": "Porto",
        "streetAndNumber": "R. Helena Vieira da Silva",
        "zip": "4450-590",
        "businessId": 209756,
        "addressExtra": "Paço da Boa Nova, B.3 R/C, Leça da Palmeira"
    },
    {
        "id": 470645,
        "identifier": "00281",
        "lat": 41.53054816,
        "lng": -8.76123476,
        "name": "Continente Modelo Esposende",
        "country": "PT",
        "city": "Esposende",
        "province": "Braga",
        "streetAndNumber": "Rua Doutor Francisco Sá Carneiro 10",
        "zip": "4740-010",
        "businessId": 209756,
        "addressExtra": "Lugar Bouro,Zona Industrial da Gandra, Esposende"
    },
    {
        "id": 470646,
        "identifier": "00233",
        "lat": 37.18781692,
        "lng": -8.44809797,
        "name": "Continente Modelo Silves",
        "country": "PT",
        "city": "Silves",
        "province": "Faro",
        "streetAndNumber": "N124",
        "zip": "8300-038",
        "businessId": 209756,
        "addressExtra": "Lugar da Tapada"
    },
    {
        "id": 470647,
        "identifier": "00305",
        "lat": 38.76291161,
        "lng": -9.15279065,
        "name": "Continente Bom Dia Quinta do Lambert",
        "country": "PT",
        "city": "Lisboa",
        "province": "Lisboa",
        "streetAndNumber": "R. Agostinho Neto",
        "zip": "1750-007",
        "businessId": 209756,
        "addressExtra": "Lotes 6 e 7, Vila Lambert"
    },
    {
        "id": 470648,
        "identifier": "00236",
        "lat": 40.59358835,
        "lng": -8.45875969,
        "name": "Continente Modelo Águeda",
        "country": "PT",
        "city": "Águeda",
        "province": "Aveiro",
        "streetAndNumber": "Rua Portinho",
        "zip": "3750-301",
        "businessId": 209756,
        "addressExtra": "Águeda, Local da Alagoa"
    },
    {
        "id": 470649,
        "identifier": "01392",
        "lat": 39.36761888,
        "lng": -9.38417393,
        "name": "Continente Modelo Peniche",
        "country": "PT",
        "city": "Peniche",
        "province": "Leiria",
        "streetAndNumber": "Rua General Humberto Delgado",
        "zip": "2520-446",
        "businessId": 209756,
        "addressExtra": "Lote 7 - Sitio Do Convento"
    },
    {
        "id": 470650,
        "identifier": "01984",
        "lat": 41.17932966,
        "lng": -8.68068329,
        "name": "Continente Bom Dia Matosinhos Sul",
        "country": "PT",
        "city": "Matosinhos",
        "province": "Porto",
        "streetAndNumber": "Avenida Villagarcia de Arosa 993",
        "zip": "4450-016",
        "businessId": 209756,
        "addressExtra": "Avª D. Afonso Henriques 1131"
    },
    {
        "id": 470651,
        "identifier": "03387",
        "lat": 39.03952317,
        "lng": -8.98773689,
        "name": "Continente Modelo Carregado",
        "country": "PT",
        "city": "Carregado",
        "province": "Lisboa",
        "streetAndNumber": "R. do Casal Machado 1",
        "zip": "2580-351",
        "businessId": 209756,
        "addressExtra": "Alenquer, Casal Machado"
    },
    {
        "id": 470652,
        "identifier": "03193",
        "lat": 40.36241772,
        "lng": -7.85637284,
        "name": "Continente Bom Dia Oliveira do Hospital",
        "country": "PT",
        "city": "Oliveira do Hospital",
        "province": "Coimbra",
        "streetAndNumber": "Rua Doutor João Afonso Ferreira Dinis",
        "zip": "3400-173",
        "businessId": 209756,
        "addressExtra": null
    },
    {
        "id": 470653,
        "identifier": "00012",
        "lat": 38.76772103,
        "lng": -9.09685312,
        "name": "Continente Vasco da Gama",
        "country": "PT",
        "city": "Lisboa",
        "province": "Lisboa",
        "streetAndNumber": "Av. Dom João II",
        "zip": "1990-094",
        "businessId": 209756,
        "addressExtra": "Centro Comercial Vasco da Gama"
    },
    {
        "id": 470654,
        "identifier": "00326",
        "lat": 41.1855319,
        "lng": -8.5824822,
        "name": "Continente Bom Dia Areosa",
        "country": "PT",
        "city": "Areosa",
        "province": "Porto",
        "streetAndNumber": "Rua António Feliciano Castilho 1171",
        "zip": "4435-617",
        "businessId": 209756,
        "addressExtra": null
    },
    {
        "id": 470674,
        "identifier": "00258",
        "lat": 37.10977368,
        "lng": -8.68895696,
        "name": "Continente Modelo Lagos",
        "country": "PT",
        "city": "Lagos",
        "province": "Faro",
        "streetAndNumber": "Urbanização Cerro das Mós 315",
        "zip": "8600-571",
        "businessId": 209756,
        "addressExtra": "lote"
    },
    {
        "id": 470675,
        "identifier": "00220",
        "lat": 39.46926943,
        "lng": -8.20422479,
        "name": "Continente Modelo Abrantes",
        "country": "PT",
        "city": "Abrantes",
        "province": "Santarém",
        "streetAndNumber": "Rua da Esperança",
        "zip": "2200-210",
        "businessId": 209756,
        "addressExtra": null
    },
    {
        "id": 470676,
        "identifier": "01057",
        "lat": 38.86472992,
        "lng": -9.32641353,
        "name": "Continente Modelo Montelavar",
        "country": "PT",
        "city": "Montelavar",
        "province": "Lisboa",
        "streetAndNumber": "Avenida da Liberdade 172",
        "zip": "2715-097",
        "businessId": 209756,
        "addressExtra": "Estrada Nacional Nº 9"
    },
    {
        "id": 470677,
        "identifier": "00331",
        "lat": 38.70558196,
        "lng": -9.2375929,
        "name": "Continente Bom Dia Algés",
        "country": "PT",
        "city": "Algés",
        "province": "Lisboa",
        "streetAndNumber": "Praceta Prof. Alfredo de Sousa",
        "zip": "1495-241",
        "businessId": 209756,
        "addressExtra": null
    },
    {
        "id": 470678,
        "identifier": "00381",
        "lat": 41.10123334,
        "lng": -7.81688444,
        "name": "Continente Modelo Lamego",
        "country": "PT",
        "city": "Lamego",
        "province": "Viseu",
        "streetAndNumber": "Rua das Amoreiras",
        "zip": "5100-190",
        "businessId": 209756,
        "addressExtra": "Praceta de Nazes, Lugar do Raboal"
    },
    {
        "id": 470679,
        "identifier": "03603",
        "lat": 40.64182833,
        "lng": -8.63939703,
        "name": "Continente Bom Dia Aveiro",
        "country": "PT",
        "city": "Aveiro",
        "province": "Aveiro",
        "streetAndNumber": "Alameda Silva Rocha",
        "zip": "3800-385",
        "businessId": 209756,
        "addressExtra": null
    },
    {
        "id": 470680,
        "identifier": "01501",
        "lat": 40.9261432,
        "lng": -8.54898798,
        "name": "Continente Modelo Santa Maria da Feira",
        "country": "PT",
        "city": "Santa Maria da Feira",
        "province": "Aveiro",
        "streetAndNumber": "Rua Comendador Sá Couto",
        "zip": "4520-192",
        "businessId": 209756,
        "addressExtra": null
    },
    {
        "id": 470681,
        "identifier": "00466",
        "lat": 41.28511198,
        "lng": -8.36119831,
        "name": "Continente Modelo Vale do Sousa",
        "country": "PT",
        "city": "Vale do Sousa",
        "province": "Porto",
        "streetAndNumber": "R. Ferrara Plaza",
        "zip": "4590-804",
        "businessId": 209756,
        "addressExtra": "Centro Comercial S. Domingos Carvalhosa"
    },
    {
        "id": 470682,
        "identifier": "01911",
        "lat": 38.75123956,
        "lng": -8.96182915,
        "name": "Continente Bom Dia Alcochete",
        "country": "PT",
        "city": "Alcochete",
        "province": "Setúbal",
        "streetAndNumber": "Avenida da Revolução 1383-1385",
        "zip": "2890-013",
        "businessId": 209756,
        "addressExtra": null
    },
    {
        "id": 470683,
        "identifier": "03194",
        "lat": 41.1675458,
        "lng": -8.65478145,
        "name": "Continente Bom Dia Porto - Mota Pinto",
        "country": "PT",
        "city": "Porto",
        "province": "Porto",
        "streetAndNumber": "R Prof. Mota Pinto",
        "zip": "4100-289",
        "businessId": 209756,
        "addressExtra": null
    },
    {
        "id": 470684,
        "identifier": "00247",
        "lat": 41.19781172,
        "lng": -8.33583597,
        "name": "Continente Modelo Paredes",
        "country": "PT",
        "city": "Paredes",
        "province": "Porto",
        "streetAndNumber": "R. António Araújo 349",
        "zip": "4580-223",
        "businessId": 209756,
        "addressExtra": "Lugar de Pias"
    },
    {
        "id": 470685,
        "identifier": "01706",
        "lat": 38.73357228,
        "lng": -9.14264979,
        "name": "Continente Bom Dia Defensores de Chaves",
        "country": "PT",
        "city": "Lisboa",
        "province": "Lisbon",
        "streetAndNumber": "Av. Defensores Chaves 9A",
        "zip": "1000-245",
        "businessId": 209756,
        "addressExtra": "Av. Praia da Vitória, 7 a"
    },
    {
        "id": 470686,
        "identifier": "00318",
        "lat": 41.16705255,
        "lng": -8.62704152,
        "name": "Continente Bom Dia Prelada",
        "country": "PT",
        "city": "Prelada",
        "province": "Porto",
        "streetAndNumber": "Rua da Prelada 19",
        "zip": "4250-376",
        "businessId": 209756,
        "addressExtra": null
    },
    {
        "id": 470687,
        "identifier": "00288",
        "lat": 41.01597861,
        "lng": -8.63821486,
        "name": "Continente Modelo São Félix da Marinha",
        "country": "PT",
        "city": "Vila Nova de Gaia",
        "province": "Porto",
        "streetAndNumber": "Rua dos Limites",
        "zip": "4410-151",
        "businessId": 209756,
        "addressExtra": "São Félix da Marinha"
    },
    {
        "id": 470688,
        "identifier": "00804",
        "lat": 38.66364393,
        "lng": -27.20659662,
        "name": "Continente Modelo Angra do Heroismo",
        "country": "PT",
        "city": "São Bento",
        "province": "Açores",
        "streetAndNumber": "Rua do Cambalim 116",
        "zip": "9700-037",
        "businessId": 209756,
        "addressExtra": null
    },
    {
        "id": 470689,
        "identifier": "00460",
        "lat": 41.13742252,
        "lng": -8.63816104,
        "name": "Continente (Gaia Jardim)",
        "country": "PT",
        "city": "Vila Nova de Gaia",
        "province": "Porto",
        "streetAndNumber": "Avenida dos Escultores 119",
        "zip": "4400-504",
        "businessId": 209756,
        "addressExtra": "Centro Comercial Gaia Jardim"
    },
    {
        "id": 470690,
        "identifier": "00271",
        "lat": 38.79214175,
        "lng": -9.19587298,
        "name": "Continente Modelo Arroja",
        "country": "PT",
        "city": "Odivelas",
        "province": "Lisboa",
        "streetAndNumber": "Avenida Acácias 6",
        "zip": "1685-654",
        "businessId": 209756,
        "addressExtra": "Arroja, 7 Lote 1 Zona"
    },
    {
        "id": 470691,
        "identifier": "01004",
        "lat": 41.20054157,
        "lng": -8.62125472,
        "name": "Continente Modelo Leça do Balio",
        "country": "PT",
        "city": "Leça do Balio",
        "province": "Porto",
        "streetAndNumber": "Rua Mainça 697",
        "zip": "4465-675",
        "businessId": 209756,
        "addressExtra": null
    },
    {
        "id": 470692,
        "identifier": "02086",
        "lat": 32.81052538,
        "lng": -16.88380532,
        "name": "Continente Modelo Santana",
        "country": "PT",
        "city": "Funchal",
        "province": "Madeira",
        "streetAndNumber": "Sítio do Barreiro",
        "zip": "9230-085",
        "businessId": 209756,
        "addressExtra": null
    },
    {
        "id": 470693,
        "identifier": "00459",
        "lat": 41.54089578,
        "lng": -8.40036989,
        "name": "Continente Braga",
        "country": "PT",
        "city": "Braga",
        "province": "Braga",
        "streetAndNumber": "Av. Robert Smith",
        "zip": "4710-249",
        "businessId": 209756,
        "addressExtra": "Fraião"
    },
    {
        "id": 470695,
        "identifier": "00014",
        "lat": 41.16361877,
        "lng": -8.58416283,
        "name": "Continente Antas",
        "country": "PT",
        "city": "Porto",
        "province": "Porto",
        "streetAndNumber": "R. dos Campeões Europeus 28-198",
        "zip": "4350-149",
        "businessId": 209756,
        "addressExtra": "Alameda Shopping"
    },
    {
        "id": 470696,
        "identifier": "00290",
        "lat": 32.70674151,
        "lng": -16.76834312,
        "name": "Continente Modelo Machico",
        "country": "PT",
        "city": "Machico",
        "province": "Madeira",
        "streetAndNumber": "Sitio da Queimada de Baixo",
        "zip": "9200-017",
        "businessId": 209756,
        "addressExtra": "Machico"
    },
    {
        "id": 470697,
        "identifier": "00203",
        "lat": 40.67302314,
        "lng": -7.91944027,
        "name": "Continente Viseu",
        "country": "PT",
        "city": "Abraveses",
        "province": "Viseu",
        "streetAndNumber": "Avenida Bélgica 150",
        "zip": "3500-159",
        "businessId": 209756,
        "addressExtra": null
    },
    {
        "id": 470698,
        "identifier": "02852",
        "lat": 37.75307768,
        "lng": -25.65118449,
        "name": "Continente Modelo Fajã de Baixo",
        "country": "PT",
        "city": "Fajã de Baixo",
        "province": "Açores",
        "streetAndNumber": "Rua do Loreto 1",
        "zip": "9500-452",
        "businessId": 209756,
        "addressExtra": "Fajã de Baixo"
    },
    {
        "id": 470699,
        "identifier": "00336",
        "lat": 38.73378828,
        "lng": -9.13313808,
        "name": "Continente Bom Dia Carlos Mardel (Lisboa)",
        "country": "PT",
        "city": "Lisboa",
        "province": "Lisboa",
        "streetAndNumber": "Rua Carlos Mardel 4",
        "zip": "1900-122",
        "businessId": 209756,
        "addressExtra": "nº (Lisboa)"
    },
    {
        "id": 470700,
        "identifier": "00002",
        "lat": 38.74136602,
        "lng": -9.23283697,
        "name": "Continente Amadora",
        "country": "PT",
        "city": "Amadora",
        "province": "Lisboa",
        "streetAndNumber": "Estrada Cabos d'Ávila 249/1",
        "zip": "2724-510",
        "businessId": 209756,
        "addressExtra": "Estrada Nacional, Venteira"
    },
    {
        "id": 470701,
        "identifier": "00266",
        "lat": 39.02172523,
        "lng": -8.79553572,
        "name": "Continente Modelo Salvaterra de Magos",
        "country": "PT",
        "city": "Salvaterra de Magos",
        "province": "Santarém",
        "streetAndNumber": "N118",
        "zip": "2120-066",
        "businessId": 209756,
        "addressExtra": "Km 46"
    },
    {
        "id": 470702,
        "identifier": "00296",
        "lat": 38.5835263,
        "lng": -8.89179549,
        "name": "Continente Modelo Palmela",
        "country": "PT",
        "city": "Palmela",
        "province": "Setúbal",
        "streetAndNumber": "Avenida Alberto Valente",
        "zip": "2950-313",
        "businessId": 209756,
        "addressExtra": "Estrada Nacional 252, Volta da Pedra"
    },
    {
        "id": 470703,
        "identifier": "01943",
        "lat": 41.21045982,
        "lng": -8.26942552,
        "name": "Continente Modelo Penafiel",
        "country": "PT",
        "city": "Milhundos",
        "province": "Porto",
        "streetAndNumber": "Rua da Capela de Chãos",
        "zip": "4560-232",
        "businessId": 209756,
        "addressExtra": "Lugar de Chãos de Cima"
    },
    {
        "id": 470704,
        "identifier": "00230",
        "lat": 40.54583363,
        "lng": -7.26473053,
        "name": "Continente Modelo Guarda",
        "country": "PT",
        "city": "Guarda",
        "province": "Guarda",
        "streetAndNumber": "R. do Ferrinho",
        "zip": "6300-566",
        "businessId": 209756,
        "addressExtra": "Freguesia S. Vicente"
    },
    {
        "id": 470705,
        "identifier": "00463",
        "lat": 38.70600174,
        "lng": -9.30155646,
        "name": "Continente Oeiras",
        "country": "PT",
        "city": "Oeiras",
        "province": "Lisboa",
        "streetAndNumber": "Avenida António Bernardo Cabral de Macedo",
        "zip": "2770-219",
        "businessId": 209756,
        "addressExtra": "Oeiras Parque"
    },
    {
        "id": 470706,
        "identifier": "00013",
        "lat": 37.12745107,
        "lng": -8.28039025,
        "name": "Continente Guia",
        "country": "PT",
        "city": "Guia",
        "province": "Faro",
        "streetAndNumber": "N125",
        "zip": "8200-417",
        "businessId": 209756,
        "addressExtra": "Lanka Parque Comercial e Industrial do Algarve, Lote R, Fração 3"
    },
    {
        "id": 470707,
        "identifier": "00843",
        "lat": 32.69371204,
        "lng": -17.04615256,
        "name": "Continente Modelo Ribeira Brava Meia Légua",
        "country": "PT",
        "city": "Funchal",
        "province": "Madeira",
        "streetAndNumber": "Sitio da Meia Légua",
        "zip": "9350-131",
        "businessId": 209756,
        "addressExtra": "Ribeira Brava"
    },
    {
        "id": 470708,
        "identifier": "00251",
        "lat": 37.03093476,
        "lng": -7.93020273,
        "name": "Continente Modelo Faro",
        "country": "PT",
        "city": "Faro",
        "province": "Faro",
        "streetAndNumber": "R. Prof. Antonio Pinheiro e Rosa 5",
        "zip": "8005-334",
        "businessId": 209756,
        "addressExtra": "Freguesia da Sé"
    },
    {
        "id": 470709,
        "identifier": "00229",
        "lat": 38.8781507,
        "lng": -7.14904225,
        "name": "Continente Modelo Elvas",
        "country": "PT",
        "city": "Elvas",
        "province": "Portalegre",
        "streetAndNumber": "Estr. do Caia",
        "zip": "7350-229",
        "businessId": 209756,
        "addressExtra": "Lugar do Paraíso, Avenida do dia de Portugal, dia 10 Junho 2013"
    },
    {
        "id": 470710,
        "identifier": "02081",
        "lat": 32.67512951,
        "lng": -16.85250014,
        "name": "Continente Modelo Camacha Shopping",
        "country": "PT",
        "city": "Funchal",
        "province": "Madeira",
        "streetAndNumber": "Rua Maria Ascensão",
        "zip": "9135-060",
        "businessId": 209756,
        "addressExtra": "Camacha, Sítio da Nogueira"
    },
    {
        "id": 492116,
        "identifier": "01905",
        "lat": 41.16321537,
        "lng": -8.62098136,
        "name": "Continente Bom Dia Serpa Pinto",
        "country": "PT",
        "city": "Porto",
        "province": "Porto",
        "streetAndNumber": "Rua de Serpa Pinto 269-271",
        "zip": "4050-586",
        "businessId": 209756,
        "addressExtra": "nºs"
    },
    {
        "id": 493426,
        "identifier": "03864",
        "lat": 41.48251412,
        "lng": -8.35118438,
        "name": "Continente Bom Dia Caldas das Taipas",
        "country": "PT",
        "city": "Caldelas",
        "province": "Braga",
        "streetAndNumber": "Rua Rio Ave",
        "zip": "4805-699",
        "businessId": 209756,
        "addressExtra": null
    },
    {
        "id": 495042,
        "identifier": "03331",
        "lat": 41.550324,
        "lng": -8.417196,
        "name": "Continente Bom Dia Braga Oficina São José",
        "country": "PT",
        "city": "Braga",
        "province": "Braga",
        "streetAndNumber": "Rua 25 de Abril 10",
        "zip": "4710-913",
        "businessId": 209756,
        "addressExtra": "90"
    },
    {
        "id": 498794,
        "identifier": "02401",
        "lat": 38.73965424,
        "lng": -9.14974439,
        "name": "Continente Bom dia Barbosa Du Bocage",
        "country": "PT",
        "city": "Lisboa",
        "province": "Lisboa",
        "streetAndNumber": "Avenida Barbosa Du Bocage 117",
        "zip": "1050-031",
        "businessId": 209756,
        "addressExtra": null
    },
    {
        "id": 502562,
        "identifier": "04696",
        "lat": 38.14058045,
        "lng": -7.44603838,
        "name": "Continente Bom Dia Moura",
        "country": "PT",
        "city": "Moura",
        "province": "Beja",
        "streetAndNumber": "Rua Engenheiro Armando Almeida Manso",
        "zip": "7860-004",
        "businessId": 209756,
        "addressExtra": null
    },
    {
        "id": 504142,
        "identifier": "00324",
        "lat": 41.121372,
        "lng": -8.60593,
        "name": "Continente Bom Dia Gaia (Av. República)",
        "country": "PT",
        "city": "Vila Nova de Gaia",
        "province": "Porto",
        "streetAndNumber": "Rua Boucinhas 1895",
        "zip": "4430-194",
        "businessId": 209756,
        "addressExtra": "Avenida da República 1895"
    },
    {
        "id": 505283,
        "identifier": "06094",
        "lat": 40.97871804,
        "lng": -8.57755951,
        "name": "Continente Bom Dia Santa Maria de Lamas",
        "country": "PT",
        "city": "Santa Maria de Lamas",
        "province": "Aveiro",
        "streetAndNumber": "Rua Santa Maria 3241",
        "zip": "4535-403",
        "businessId": 209756,
        "addressExtra": null
    },
    {
        "id": 506551,
        "identifier": "06154",
        "lat": 41.21376732,
        "lng": -8.6850128,
        "name": "Continente Bom Dia Matosinhos Retail Park",
        "country": "PT",
        "city": "Santa Cruz do Bispo",
        "province": "Porto",
        "streetAndNumber": "Rua Azemel 38",
        "zip": "4455-877",
        "businessId": 209756,
        "addressExtra": "Matosinhos Retail Park"
    },
    {
        "id": 511933,
        "identifier": "03368",
        "lat": 38.72244455,
        "lng": -9.23552574,
        "name": "Continente Bom Dia Carnaxide",
        "country": "PT",
        "city": "Carnaxide",
        "province": "Lisboa",
        "streetAndNumber": "Avenida do Forte 5",
        "zip": "2790-073",
        "businessId": 209756,
        "addressExtra": null
    },
    {
        "id": 517493,
        "identifier": "04290",
        "lat": 41.17741399638992,
        "lng": -8.590866636950523,
        "name": "Continente Bom Dia Asprela",
        "country": "PT",
        "city": "São Mamede de Infesta",
        "province": "Porto",
        "streetAndNumber": "Rua Henrique de Sousa Reis",
        "zip": "4200-008",
        "businessId": 209756,
        "addressExtra": "Asprela"
    },
    {
        "id": 522983,
        "identifier": "01502",
        "lat": 40.99918327,
        "lng": -8.5315351,
        "name": "Continente Bom Dia Fiães",
        "country": "PT",
        "city": "Fiães",
        "province": "Aveiro",
        "streetAndNumber": "R. Principal do Bolhão 245",
        "zip": "4505-374",
        "businessId": 209756,
        "addressExtra": null
    },
    {
        "id": 574410,
        "identifier": "03212",
        "lat": 42.024179,
        "lng": -8.646609,
        "name": "Continente Bom Dia Valença",
        "country": "PT",
        "city": "Valença",
        "province": "Viana do Castelo",
        "streetAndNumber": "Rua Nossa Senhora de Fátima 0",
        "zip": "4930-632",
        "businessId": 209756,
        "addressExtra": "Lugar da Costa da Ervilha"
    },
    {
        "id": 574423,
        "identifier": "05179",
        "lat": 40.90675183,
        "lng": -8.49601628,
        "name": "Continente Bom Dia São João da Madeira",
        "country": "PT",
        "city": "São João da Madeira",
        "province": "Aveiro",
        "streetAndNumber": "Rua António José de Oliveira Júnior 949",
        "zip": "3700-205",
        "businessId": 209756,
        "addressExtra": null
    },
    {
        "id": 580224,
        "identifier": "01909",
        "lat": 38.76215461,
        "lng": -9.2030677,
        "name": "Continente Bom Dia Alfornelos",
        "country": "PT",
        "city": "Alfornelos",
        "province": "Lisboa",
        "streetAndNumber": "Avenida Ruy Luís Gomes",
        "zip": "2650-130",
        "businessId": 209756,
        "addressExtra": null
    },
    {
        "id": 591323,
        "identifier": "03583",
        "lat": 38.5325141,
        "lng": -8.89689978,
        "name": "Continente Bom Dia Setúbal Variante",
        "country": "PT",
        "city": "Setúbal",
        "province": "Setúbal",
        "streetAndNumber": "Estrada da Baixa de Palmela 14",
        "zip": "2900-717",
        "businessId": 209756,
        "addressExtra": "Quinta das Rosas"
    },
    {
        "id": 615369,
        "identifier": "08548",
        "lat": 41.08446155,
        "lng": -8.25389257,
        "name": "Continente Bom Dia Alpendorada",
        "country": "PT",
        "city": "Alpendorada",
        "province": "Porto",
        "streetAndNumber": "Av. Miratâmega",
        "zip": "4575-010",
        "businessId": 209756,
        "addressExtra": "lote 7"
    },
    {
        "id": 619425,
        "identifier": "02864",
        "lat": 38.77485524,
        "lng": -9.15614146,
        "name": "Continente Modelo Alto do Lumiar",
        "country": "PT",
        "city": "Lisboa",
        "province": "Lisboa",
        "streetAndNumber": "Avenida David Mourão-Ferreira 62",
        "zip": "1750-314",
        "businessId": 209756,
        "addressExtra": null
    },
    {
        "id": 619431,
        "identifier": "04508",
        "lat": 39.097982,
        "lng": -9.25477,
        "name": "Continente Bom Dia Torres Vedras",
        "country": "PT",
        "city": "Torres Vedras",
        "province": "Lisboa",
        "streetAndNumber": "Rua Fernando Vicente 22",
        "zip": "2560-628",
        "businessId": 209756,
        "addressExtra": "Bairro Arenes"
    },
    {
        "id": 620830,
        "identifier": "04418",
        "lat": 40.16632041,
        "lng": -8.87160724,
        "name": "Continente Bom Dia Buarcos",
        "country": "PT",
        "city": "Buarcos",
        "province": "Coimbra",
        "streetAndNumber": "Rua Várzea de Buarcos",
        "zip": "3080-228",
        "businessId": 209756,
        "addressExtra": "Av.ª Dr. Mário Soares"
    },
    {
        "id": 629114,
        "identifier": "05751",
        "lat": 41.6783276,
        "lng": -8.78302318,
        "name": "Continente Bom Dia Darque",
        "country": "PT",
        "city": "Darque",
        "province": "Viana do Castelo",
        "streetAndNumber": "Avenida Santoinho",
        "zip": "4935-052",
        "businessId": 209756,
        "addressExtra": "Rua das cebolas,Quinta De São Brás"
    },
    {
        "id": 630847,
        "identifier": "02756",
        "lat": 38.74325081,
        "lng": -9.13895511,
        "name": "Continente Bom Dia Acqua Roma",
        "country": "PT",
        "city": "Lisboa",
        "province": "Lisboa",
        "streetAndNumber": "Avenida de Roma 13-15",
        "zip": "1000-261",
        "businessId": 209756,
        "addressExtra": null
    },
    {
        "id": 630848,
        "identifier": "08524",
        "lat": 38.6665547,
        "lng": -9.0479951,
        "name": "Continente Bom Dia Baixa da Banheira",
        "country": "PT",
        "city": "Moita",
        "province": "Setúbal",
        "streetAndNumber": "Rua de Damão 62",
        "zip": "2835-089",
        "businessId": 209756,
        "addressExtra": "Baixa da Banheira"
    },
    {
        "id": 631139,
        "identifier": "05152",
        "lat": 40.55418375,
        "lng": -7.2466557,
        "name": "Continente Bom Dia Guarda",
        "country": "PT",
        "city": "Guarda",
        "province": "Guarda",
        "streetAndNumber": "Avenida de São Miguel",
        "zip": "6300-837",
        "businessId": 209756,
        "addressExtra": "São Miguel da Guarda"
    },
    {
        "id": 662045,
        "identifier": "04322",
        "lat": 38.050129,
        "lng": -8.788417,
        "name": "Continente Bom Dia Santo André",
        "country": "PT",
        "city": "Santo André",
        "province": "Setúbal",
        "streetAndNumber": "Avenida de Sines, lote 1",
        "zip": "7500-200",
        "businessId": 209756,
        "addressExtra": "Vila Nova de Santo André"
    },
    {
        "id": 663569,
        "identifier": "06174",
        "lat": 38.666973,
        "lng": -9.19255794,
        "name": "Continente Bom Dia Monte de Caparica",
        "country": "PT",
        "city": "Caparica",
        "province": "Setúbal",
        "streetAndNumber": "Rua da Bela Vista 85",
        "zip": "2825-004",
        "businessId": 209756,
        "addressExtra": null
    },
    {
        "id": 663573,
        "identifier": "05759",
        "lat": 37.02944717,
        "lng": -7.83683177,
        "name": "Continente Bom Dia Olhão",
        "country": "PT",
        "city": "Olhão",
        "province": "Faro",
        "streetAndNumber": "Rua Patrão Joaquim Casaca 2",
        "zip": "8700-507",
        "businessId": 209756,
        "addressExtra": null
    },
    {
        "id": 663576,
        "identifier": "05766",
        "lat": 38.72696194,
        "lng": -9.14697246,
        "name": "Continente Bom Dia Duque de Loulé",
        "country": "PT",
        "city": "Lisboa",
        "province": "Lisboa",
        "streetAndNumber": "Avenida Duque Loulé 96",
        "zip": "1050-092",
        "businessId": 209756,
        "addressExtra": null
    },
    {
        "id": 663578,
        "identifier": "09083",
        "lat": 38.53492865,
        "lng": -9.02262978,
        "name": "Continente Bom Dia Brejos de Azeitão",
        "country": "PT",
        "city": "Brejos de Azeitão",
        "province": "Setúbal",
        "streetAndNumber": "Rua Família Bronze",
        "zip": "2925-148",
        "businessId": 209756,
        "addressExtra": null
    },
    {
        "id": 663579,
        "identifier": "03473",
        "lat": 38.77106162411317,
        "lng": -9.271223852410913,
        "name": "Continente Modelo Belas",
        "country": "PT",
        "city": "Belas",
        "province": "Lisboa",
        "streetAndNumber": "Estrada da Portela",
        "zip": "2605-086",
        "businessId": 209756,
        "addressExtra": null
    },
    {
        "id": 663590,
        "identifier": "04289",
        "lat": 37.189309,
        "lng": -7.4175083,
        "name": "Continente Bom Dia Vila Real de Santo António",
        "country": "PT",
        "city": "Vila Real de Santo António",
        "province": "Faro",
        "streetAndNumber": "Avenida Ministro Duarte Pacheco",
        "zip": "8900-211",
        "businessId": 209756,
        "addressExtra": "Complexo Desportivo Vila Real Stº António"
    },
    {
        "id": 663592,
        "identifier": "06089",
        "lat": 38.0214729,
        "lng": -7.84542457,
        "name": "Continente Modelo Beja Retail",
        "country": "PT",
        "city": "Beja",
        "province": "Beja",
        "streetAndNumber": "Estr. das Apolinarias",
        "zip": "7800-050",
        "businessId": 209756,
        "addressExtra": "com EN 260"
    },
    {
        "id": 793452,
        "identifier": "09055",
        "lat": 37.83397816,
        "lng": -25.68661545,
        "name": "Continente Modelo Capelas",
        "country": "PT",
        "city": "Capelas",
        "province": "Açores",
        "streetAndNumber": "Rua do Rossio",
        "zip": "9545-143",
        "businessId": 209756,
        "addressExtra": "Lote A, Nº4"
    },
    {
        "id": 793453,
        "identifier": "09054",
        "lat": 37.760108,
        "lng": -25.7017,
        "name": "Continente Modelo Arrifes",
        "country": "PT",
        "city": "Arrifes",
        "province": "Açores",
        "streetAndNumber": "Rua da Saúde",
        "zip": "9500-376",
        "businessId": 209756,
        "addressExtra": "Rua Cardeal Humberto Medeiros, Freguesia de Arrifes"
    },
    {
        "id": 839241,
        "identifier": "04860",
        "lat": 38.668567,
        "lng": -9.159029,
        "name": "Continente Bom Dia Cova da Piedade",
        "country": "PT",
        "city": "Almada",
        "province": "Setúbal",
        "streetAndNumber": "Avenida 23 de Julho 5",
        "zip": "2805-235",
        "businessId": 209756,
        "addressExtra": "Cova da Piedade"
    },
    {
        "id": 1223646,
        "identifier": "08736",
        "lat": 41.06699599,
        "lng": -8.57594811,
        "name": "Continente Bom Dia Carvalhos",
        "country": "PT",
        "city": "Pedroso",
        "province": "Porto",
        "streetAndNumber": "Av. Dr. Moreira Sousa 805",
        "zip": "4415-383",
        "businessId": 209756,
        "addressExtra": null
    },
    {
        "id": 1223985,
        "identifier": "05746",
        "lat": 39.02104632,
        "lng": -9.15467912,
        "name": "Continente Bom Dia Sobral de Monte Agraço",
        "country": "PT",
        "city": "Sobral de Monte Agraço",
        "province": "Lisboa",
        "streetAndNumber": "Av. Marquês de Pombal",
        "zip": "2590-095",
        "businessId": 209756,
        "addressExtra": "N248, Alto Fetais"
    },
    {
        "id": 1231112,
        "identifier": "04578 ",
        "lat": 40.96198268,
        "lng": -8.62836053,
        "name": "Continente Bom Dia Esmoriz",
        "country": "PT",
        "city": "Esmoriz",
        "province": "Aveiro",
        "streetAndNumber": "Rua da Estação 45",
        "zip": "3885-455",
        "businessId": 209756,
        "addressExtra": null
    },
    {
        "id": 1248641,
        "identifier": "06332",
        "lat": 39.62816774,
        "lng": -8.85281932,
        "name": "Continente Modelo Porto de Mós",
        "country": "PT",
        "city": "Calvaria de Cima",
        "province": "Leiria",
        "streetAndNumber": "Estrada de Porto Mós",
        "zip": "2480-062",
        "businessId": 209756,
        "addressExtra": "Entroncamento de São Jorge, E.N. 1 com"
    },
    {
        "id": 1250518,
        "identifier": "03886",
        "lat": 38.75860882,
        "lng": -9.114854,
        "name": "Continente Modelo Marechal Gomes da Costa",
        "country": "PT",
        "city": "Lisboa",
        "province": "Lisboa",
        "streetAndNumber": "Av. Marechal Gomes da Costa 33",
        "zip": "1800-255",
        "businessId": 209756,
        "addressExtra": null
    },
    {
        "id": 1250763,
        "identifier": "05767",
        "lat": 38.69663343,
        "lng": -9.32591351,
        "name": "Continente Bom dia Quinta do Marquês",
        "country": "PT",
        "city": "Oeiras",
        "province": "Lisboa",
        "streetAndNumber": "Rua Norton de Matos 2",
        "zip": "2780-155",
        "businessId": 209756,
        "addressExtra": "Quinta do Marquês, R. Dr. António José de Almeida"
    },
    {
        "id": 1253218,
        "identifier": "03883",
        "lat": 40.40431115,
        "lng": -8.12929138,
        "name": "Continente Bom Dia Santa Comba Dão",
        "country": "PT",
        "city": "Santa Comba Dão",
        "province": "Viseu",
        "streetAndNumber": "Avenida Santo Estevão 33",
        "zip": "3440-323",
        "businessId": 209756,
        "addressExtra": null
    },
    {
        "id": 1256020,
        "identifier": "09665",
        "lat": 41.02845933486664,
        "lng": -8.556505874230197,
        "name": "Continente Bom Dia Grijó",
        "country": "PT",
        "city": "Grijó",
        "province": "Porto",
        "streetAndNumber": "Rua de Américo de Oliveira",
        "zip": "4415-425",
        "businessId": 209756,
        "addressExtra": null
    },
    {
        "id": 1261256,
        "identifier": "09024",
        "lat": 39.35209177,
        "lng": -9.16017838,
        "name": "Continente Bom Dia Óbidos",
        "country": "PT",
        "city": "Óbidos",
        "province": "Leiria",
        "streetAndNumber": "N8",
        "zip": "2510-081",
        "businessId": 209756,
        "addressExtra": null
    },
    {
        "id": 1261311,
        "identifier": "02596",
        "lat": 37.10660527,
        "lng": -8.36263711,
        "name": "Continente Bom Dia Armação de Pêra",
        "country": "PT",
        "city": "Armação de Pêra",
        "province": "Faro",
        "streetAndNumber": "Avenida General Humberto Delgado",
        "zip": "8365-138",
        "businessId": 209756,
        "addressExtra": null
    },
    {
        "id": 1366032,
        "identifier": "07683",
        "lat": 41.14899451,
        "lng": -8.60581105,
        "name": "Continente Bom Dia Via Catarina Shopping",
        "country": "PT",
        "city": "Porto",
        "province": "Porto",
        "streetAndNumber": "Rua de Santa Catarina 312-350",
        "zip": "4000-433",
        "businessId": 209756,
        "addressExtra": "Catarina Shopping"
    },
    {
        "id": 1400468,
        "identifier": "05763",
        "lat": 39.754681,
        "lng": -8.80295,
        "name": "Continente Bom Dia Leiria Marrazes",
        "country": "PT",
        "city": "Leiria",
        "province": "Leiria",
        "streetAndNumber": "Rua Álvaro Pires Miranda",
        "zip": "2415-369",
        "businessId": 209756,
        "addressExtra": null
    },
    {
        "id": 1553347,
        "identifier": "06175 ",
        "lat": 41.74432691,
        "lng": -7.47002563,
        "name": "Continente Bom Dia Chaves",
        "country": "PT",
        "city": "Chaves",
        "province": "Vila Real",
        "streetAndNumber": "Avenida Doutor António Granjo",
        "zip": "5400-080",
        "businessId": 209756,
        "addressExtra": "lote 6 Chaves"
    },
    {
        "id": 1570366,
        "identifier": "02075",
        "lat": 41.47532016,
        "lng": -7.17754151,
        "name": "Continente Modelo Mirandela",
        "country": "PT",
        "city": "Mirandela",
        "province": "Bragança",
        "streetAndNumber": "Rua Força Aérea",
        "zip": "5370-408",
        "businessId": 209756,
        "addressExtra": null
    },
    {
        "id": 1576150,
        "identifier": "09379",
        "lat": 39.39893283,
        "lng": -9.13565881,
        "name": "Continente Bom Dia Caldas da Rainha",
        "country": "PT",
        "city": "Caldas da Rainha",
        "province": "Leiria",
        "streetAndNumber": "Rua Fernando Ponte e Sousa 37",
        "zip": "2500-200",
        "businessId": 209756,
        "addressExtra": null
    },
    {
        "id": 1630212,
        "identifier": "7691",
        "lat": 38.72967175,
        "lng": -9.12828904,
        "name": "Continente Bom Dia General Roçadas",
        "country": "PT",
        "city": "Lisboa",
        "province": "Lisboa",
        "streetAndNumber": "Avenida General Roçadas 169",
        "zip": "1170-230",
        "businessId": 209756,
        "addressExtra": null
    },
    {
        "id": 1630215,
        "identifier": "03580",
        "lat": 41.944,
        "lng": -8.74264,
        "name": "Continente Bom Dia Vila Nova de Cerveira",
        "country": "PT",
        "city": "Vila Nova de Cerveira",
        "province": "Viana do Castelo",
        "streetAndNumber": "Rua do Belo Cais 5",
        "zip": "4920-260",
        "businessId": 209756,
        "addressExtra": null
    },
    {
        "id": 1630217,
        "identifier": "09664",
        "lat": 40.2940055,
        "lng": -7.4828713,
        "name": "Continente Bom Dia Canhoso",
        "country": "PT",
        "city": "Covilhã",
        "province": "Castelo Branco",
        "streetAndNumber": "Rua Humberto Delgado 2B",
        "zip": "6200-027",
        "businessId": 209756,
        "addressExtra": null
    },
    {
        "id": 1769506,
        "identifier": "03366",
        "lat": 40.158034,
        "lng": -8.849249,
        "name": "Continente Modelo Figueira da Foz",
        "country": "PT",
        "city": "Figueira da Foz",
        "province": "Coimbra",
        "streetAndNumber": "Rotunda Maria Clara",
        "zip": "3080-602",
        "businessId": 209756,
        "addressExtra": null
    },
    {
        "id": 1786140,
        "identifier": "04246",
        "lat": 40.76256829,
        "lng": -8.57365289,
        "name": "Continente Bom Dia Estarreja",
        "country": "PT",
        "city": "Estarreja",
        "province": "Aveiro",
        "streetAndNumber": "Rua da Arrotinha 50",
        "zip": "3860-207",
        "businessId": 209756,
        "addressExtra": null
    },
    {
        "id": 1789575,
        "identifier": "09663",
        "lat": 41.01053507,
        "lng": -8.46190409,
        "name": "Continente Bom Dia Canedo",
        "country": "PT",
        "city": "Canedo",
        "province": "Aveiro",
        "streetAndNumber": "Rua do Rio Douro",
        "zip": "4525-189",
        "businessId": 209756,
        "addressExtra": null
    },
    {
        "id": 1790392,
        "identifier": "04961",
        "lat": 41.148832,
        "lng": -8.600175,
        "name": "Continente Bom Dia Campo 24 de Agosto",
        "country": "PT",
        "city": "Porto",
        "province": "Porto",
        "streetAndNumber": "Rua de Fernandes Tomás",
        "zip": "4000-208",
        "businessId": 209756,
        "addressExtra": null
    },
    {
        "id": 1799618,
        "identifier": "07679",
        "lat": 41.101326,
        "lng": -8.586929,
        "name": "Continente Bom dia Monte da Virgem - Vila d'Este",
        "country": "PT",
        "city": "Vila Nova de Gaia",
        "province": "Porto",
        "streetAndNumber": "Rua das Colectividades",
        "zip": "4430-433",
        "businessId": 209756,
        "addressExtra": "Vilar de Andorinho"
    },
    {
        "id": 1800694,
        "identifier": "04526",
        "lat": 39.25664307,
        "lng": -8.58633314,
        "name": "Continente Bom dia Alpiarça",
        "country": "PT",
        "city": "Alpiarça",
        "province": "Santarém",
        "streetAndNumber": "Rua José Relvas 46",
        "zip": "2090-103",
        "businessId": 209756,
        "addressExtra": null
    },
    {
        "id": 1846214,
        "identifier": "03698",
        "lat": 39.76094564,
        "lng": -8.82235964,
        "name": "Continente Bom dia Gândara Olivais",
        "country": "PT",
        "city": "Leiria",
        "province": "Leiria",
        "streetAndNumber": "Rua Dom Carlos I",
        "zip": "2415-405",
        "businessId": 209756,
        "addressExtra": null
    },
    {
        "id": 2122228,
        "identifier": "03192",
        "lat": 38.787941,
        "lng": -9.147497,
        "name": "Continente Modelo Alta de Lisboa",
        "country": "PT",
        "city": "Lisboa",
        "province": "Lisboa",
        "streetAndNumber": "Rua Hermínio da Palma Inácio",
        "zip": "1750-480",
        "businessId": 209756,
        "addressExtra": "Lote 28.2 - Loja A"
    }
]