[
    {
        "Latitude": 41.14061,
        "Longitude": -8.63651,
        "Url": null,
        "SupportPhoneNumber": "227663000",
        "Icon": "/Frontoffice/Images/icons/map/marker-jumbo.png",
        "StoreServicesImage": "https://media.jumbo.pt/MediaContent/Mapa_Servicos_loja/mapInfo_008.jpg",
        "Address": {
            "Country": "",
            "StreetName": "Centro Comercial Arrábida Shopping, Praceta Henrique Moreira",
            "ZipCode": "4400",
            "ZipCode2": "346",
            "DoorNumber": "          ",
            "Floor": "          ",
            "Fraction": "          ",
            "City": "Vila Nova de Gaia",
            "District": "Porto",
            "County": "Vila Nova de Gaia",
            "Latitude": 41.14061,
            "Longitude": -8.63651,
            "FullAddress": "Centro Comercial Arrábida Shopping, Praceta Henrique Moreira Nº                                 4400 - 346 Vila Nova de Gaia",
            "FullAddressWithoutZipCode": "Centro Comercial Arrábida Shopping, Praceta Henrique Moreira Nº                                ",
            "FullZipCode": "4400 - 346 Vila Nova de Gaia",
            "AddressType": 3,
            "IsMainAddress": false,
            "Region": "Norte",
            "Id": "008_StoreAd",
            "DisplayName": "Ponto de Recolha na loja"
        },
        "SupportedServiceTypesAsString": [
            "Compre na loja e receba em casa"
        ],
        "Schedule": "De 2ª a 5ªFeira das 9h-21h; 6ªFeira, Sáb. e vésp. de Feriado das 9h-21h; Domingos e Feriados das 9h-21h, Páscoa 12/04 encerra às 13h",
        "VirtualAreaId": null,
        "Region": "Norte",
        "Id": "008",
        "DisplayName": "Auchan Vila Nova de Gaia"
    },
    {
        "Latitude": 40.20467,
        "Longitude": -8.40748,
        "Url": null,
        "SupportPhoneNumber": "239243000",
        "Icon": "/Frontoffice/Images/icons/map/marker-jumbo.png",
        "StoreServicesImage": "https://media.jumbo.pt/MediaContent/Mapa_Servicos_loja/mapInfo_009.jpg",
        "Address": {
            "Country": "",
            "StreetName": "Alma Shopping, Rua D. João III",
            "ZipCode": "3030",
            "ZipCode2": "329",
            "DoorNumber": "          ",
            "Floor": "          ",
            "Fraction": "          ",
            "City": "Coimbra",
            "District": "Coimbra",
            "County": "Coimbra",
            "Latitude": 40.20467,
            "Longitude": -8.40748,
            "FullAddress": "Alma Shopping, Rua D. João III Nº                                 3030 - 329 Coimbra",
            "FullAddressWithoutZipCode": "Alma Shopping, Rua D. João III Nº                                ",
            "FullZipCode": "3030 - 329 Coimbra",
            "AddressType": 3,
            "IsMainAddress": false,
            "Region": "Centro",
            "Id": "009_StoreAd",
            "DisplayName": "Ponto de Recolha na loja"
        },
        "SupportedServiceTypesAsString": [
            "Compre na loja e receba em casa"
        ],
        "Schedule": "De 2ª a 5ªFeira das 8h30-21h; 6ªFeira, Sáb. e vésp. de Feriado das 8h30-21h; Domingos e Feriados das 8h30-21h; Páscoa 12/04 encerra às 13h",
        "VirtualAreaId": null,
        "Region": "Centro",
        "Id": "009",
        "DisplayName": "Auchan Coimbra"
    },
    {
        "Latitude": 40.19156,
        "Longitude": -8.39978,
        "Url": "http://auchan.pt/CMS/Lojas/Lists/Gasolineiras/Gasolineira%20Coimbra",
        "SupportPhoneNumber": "239243000",
        "Icon": "/Frontoffice/Images/icons/map/marker-gasolineira.png",
        "StoreServicesImage": "https://media.jumbo.pt/MediaContent/Mapa_Servicos_loja/mapInfo_009GAS.jpg",
        "Address": {
            "Country": null,
            "StreetName": "Rua Ferrer Correia (Estrada das Beiras)",
            "ZipCode": "3030",
            "ZipCode2": "329",
            "DoorNumber": null,
            "Floor": null,
            "Fraction": null,
            "City": "Coimbra",
            "District": "Coimbra",
            "County": "Coimbra",
            "Latitude": 40.19156,
            "Longitude": -8.39978,
            "FullAddress": "Rua Ferrer Correia (Estrada das Beiras)    3030 - 329 Coimbra",
            "FullAddressWithoutZipCode": "Rua Ferrer Correia (Estrada das Beiras)   ",
            "FullZipCode": "3030 - 329 Coimbra",
            "AddressType": 3,
            "IsMainAddress": false,
            "Region": "",
            "Id": "009GAS_StoreAd",
            "DisplayName": "Ponto de Recolha na loja"
        },
        "SupportedServiceTypesAsString": [],
        "Schedule": "De 2ª a 5ªFeira das 7h-23h; 6ª Feira; Sábado e vésperas de Feriado das 7h-23h; Domingos e Feriados das 7h-23h; Páscoa 12/04 encerra às 13h; Dia 24/12 das 8h30-17h; Dia 31/12 das 8h30-18h",
        "VirtualAreaId": null,
        "Region": "",
        "Id": "009GAS",
        "DisplayName": "Gasolineira Coimbra"
    },
    {
        "Latitude": 40.64350,
        "Longitude": -7.91188,
        "Url": null,
        "SupportPhoneNumber": "232247100",
        "Icon": "/Frontoffice/Images/icons/map/marker-jumbo.png",
        "StoreServicesImage": "https://media.jumbo.pt/MediaContent/Mapa_Servicos_loja/mapInfo_010.jpg",
        "Address": {
            "Country": "",
            "StreetName": "Palácio do Gelo, Quinta da Alagoa, Ranhados",
            "ZipCode": "3500",
            "ZipCode2": "606",
            "DoorNumber": "          ",
            "Floor": "          ",
            "Fraction": "          ",
            "City": "Viseu",
            "District": "Viseu",
            "County": "Viseu",
            "Latitude": 40.64350,
            "Longitude": -7.91188,
            "FullAddress": "Palácio do Gelo, Quinta da Alagoa, Ranhados Nº                                 3500 - 606 Viseu",
            "FullAddressWithoutZipCode": "Palácio do Gelo, Quinta da Alagoa, Ranhados Nº                                ",
            "FullZipCode": "3500 - 606 Viseu",
            "AddressType": 3,
            "IsMainAddress": false,
            "Region": "Norte",
            "Id": "010_StoreAd",
            "DisplayName": "Ponto de Recolha na loja"
        },
        "SupportedServiceTypesAsString": [
            "Compre na loja e receba em casa"
        ],
        "Schedule": "De 2ª a 5ªFeira das 9h-21h; 6ªFeira, Sáb. e vésp. de Feriado das 9h-21h; Domingos e Feriados das 9h-21h; Páscoa 12/04 encerra às 13h",
        "VirtualAreaId": null,
        "Region": "Norte",
        "Id": "010",
        "DisplayName": "Auchan Viseu"
    },
    {
        "Latitude": 40.63782,
        "Longitude": -7.90896,
        "Url": "http://auchan.pt/CMS/Lojas/Lists/Gasolineiras/Gasolineira%20viseu",
        "SupportPhoneNumber": "232247100",
        "Icon": "/Frontoffice/Images/icons/map/marker-gasolineira.png",
        "StoreServicesImage": "https://media.jumbo.pt/MediaContent/Mapa_Servicos_loja/mapInfo_010GAS.jpg",
        "Address": {
            "Country": null,
            "StreetName": "Quinta da Alagoa Estrada Nelas",
            "ZipCode": "3500",
            "ZipCode2": "606",
            "DoorNumber": null,
            "Floor": null,
            "Fraction": null,
            "City": "Viseu",
            "District": "Viseu",
            "County": "Viseu",
            "Latitude": 40.63782,
            "Longitude": -7.90896,
            "FullAddress": "Quinta da Alagoa Estrada Nelas    3500 - 606 Viseu",
            "FullAddressWithoutZipCode": "Quinta da Alagoa Estrada Nelas   ",
            "FullZipCode": "3500 - 606 Viseu",
            "AddressType": 3,
            "IsMainAddress": false,
            "Region": "",
            "Id": "010GAS_StoreAd",
            "DisplayName": "Ponto de Recolha na loja"
        },
        "SupportedServiceTypesAsString": [],
        "Schedule": "De 2ª a 5ªFeira das 7h-23h; 6ª Feira; Sábado e vésperas de Feriado das 7h-23h; Domingos e Feriados das 7h-23h; Páscoa 12/04 encerra às 13h; Dia 24/12 das 8h30-17h; Dia 31/12 das 9h-19h",
        "VirtualAreaId": null,
        "Region": "",
        "Id": "010GAS",
        "DisplayName": "Gasolineira Viseu"
    },
    {
        "Latitude": 38.65988,
        "Longitude": -9.17515,
        "Url": null,
        "SupportPhoneNumber": "210457150",
        "Icon": "/Frontoffice/Images/icons/map/marker-jumbo.png",
        "StoreServicesImage": "https://media.jumbo.pt/MediaContent/Mapa_Servicos_loja/mapInfo_012.jpg",
        "Address": {
            "Country": "Portugal",
            "StreetName": "Almada Fórum, Qta Vale de Murelos",
            "ZipCode": "2810",
            "ZipCode2": "500",
            "DoorNumber": "          ",
            "Floor": "          ",
            "Fraction": "          ",
            "City": "Almada",
            "District": "Setúbal",
            "County": "Almada",
            "Latitude": 38.65988,
            "Longitude": -9.17515,
            "FullAddress": "Almada Fórum, Qta Vale de Murelos Nº                                 2810 - 500 Almada",
            "FullAddressWithoutZipCode": "Almada Fórum, Qta Vale de Murelos Nº                                ",
            "FullZipCode": "2810 - 500 Almada",
            "AddressType": 3,
            "IsMainAddress": false,
            "Region": "Lisboa e Vale do Tejo",
            "Id": "012_StoreAd",
            "DisplayName": "Ponto de Recolha na loja"
        },
        "SupportedServiceTypesAsString": [
            "Compre na loja e receba em casa"
        ],
        "Schedule": "De 2ª a 5ªFeira das 9h-21h; 6ªFeira; Sáb. e vésp. de Feriado das 9h-21h; Domingos e Feriados das 9h-21h; Páscoa 12/04 encerra às 13h",
        "VirtualAreaId": null,
        "Region": "Lisboa e Vale do Tejo",
        "Id": "012",
        "DisplayName": "Auchan Almada"
    },
    {
        "Latitude": 38.65684,
        "Longitude": -9.17220,
        "Url": "http://auchan.pt/CMS/Lojas/Lists/Gasolineiras/Gasolineira%20almada",
        "SupportPhoneNumber": "210457150",
        "Icon": "/Frontoffice/Images/icons/map/marker-gasolineira.png",
        "StoreServicesImage": "https://media.jumbo.pt/MediaContent/Mapa_Servicos_loja/mapInfo_012GAS.jpg",
        "Address": {
            "Country": null,
            "StreetName": "Estrada Vale Mourelos nº 20 Qta. Espadeiros",
            "ZipCode": "2810",
            "ZipCode2": "133",
            "DoorNumber": null,
            "Floor": null,
            "Fraction": null,
            "City": "Almada",
            "District": "Setúbal",
            "County": "Almada",
            "Latitude": 38.65684,
            "Longitude": -9.17220,
            "FullAddress": "Estrada Vale Mourelos nº 20 Qta. Espadeiros    2810 - 133 Almada",
            "FullAddressWithoutZipCode": "Estrada Vale Mourelos nº 20 Qta. Espadeiros   ",
            "FullZipCode": "2810 - 133 Almada",
            "AddressType": 3,
            "IsMainAddress": false,
            "Region": "",
            "Id": "012GAS_StoreAd",
            "DisplayName": "Ponto de Recolha na loja"
        },
        "SupportedServiceTypesAsString": [],
        "Schedule": "De 2ª a 5ªFeira das 7h-24h; 6ª Feira; Sábado e vésperas de Feriado das 7h-24h; Domingos e Feriados das 7h-24h; Páscoa 12/04 encerra às 13h; Dia 24/12 das 8h30-17h; Dia 31/12 das 8h30-18h",
        "VirtualAreaId": null,
        "Region": "",
        "Id": "012GAS",
        "DisplayName": "Gasolineira Almada"
    },
    {
        "Latitude": 39.10152,
        "Longitude": -9.25354,
        "Url": "http://auchan.pt/CMS/Lojas/Lists/Jumbo%20e%20Pao%20Acucar/Jumbo%20de%20Torres%20Vedras ",
        "SupportPhoneNumber": "261249200",
        "Icon": "/Frontoffice/Images/icons/map/marker-jumbo.png",
        "StoreServicesImage": "https://media.jumbo.pt/MediaContent/Mapa_Servicos_loja/mapInfo_013.jpg",
        "Address": {
            "Country": "",
            "StreetName": "Centro Comercial Arena, Quinta dos Amiais, Lote 81",
            "ZipCode": "2560",
            "ZipCode2": "615",
            "DoorNumber": "          ",
            "Floor": "          ",
            "Fraction": "          ",
            "City": "Torres Vedras",
            "District": "Lisboa",
            "County": "Torres Vedras",
            "Latitude": 39.10152,
            "Longitude": -9.25354,
            "FullAddress": "Centro Comercial Arena, Quinta dos Amiais, Lote 81 Nº                                 2560 - 615 Torres Vedras",
            "FullAddressWithoutZipCode": "Centro Comercial Arena, Quinta dos Amiais, Lote 81 Nº                                ",
            "FullZipCode": "2560 - 615 Torres Vedras",
            "AddressType": 3,
            "IsMainAddress": false,
            "Region": "Lisboa e Vale do Tejo",
            "Id": "013_StoreAd",
            "DisplayName": "Ponto de Recolha na loja"
        },
        "SupportedServiceTypesAsString": [
            "Compre na loja e receba em casa"
        ],
        "Schedule": "De 2ª a 5ªFeira das 9h-21h; 6ªFeira, Sáb. e vésp. de Feriado das 9h-21h; Domingos e Feriados das 9h-21h; Páscoa 12/04 encerra às 13h",
        "VirtualAreaId": null,
        "Region": "Lisboa e Vale do Tejo",
        "Id": "013",
        "DisplayName": "Auchan Torres Vedras"
    },
    {
        "Latitude": 39.10142,
        "Longitude": -9.25436,
        "Url": "http://auchan.pt/CMS/Lojas/Lists/Gasolineiras/Gasolineira%20Torres%20Vedras",
        "SupportPhoneNumber": "261249200",
        "Icon": "/Frontoffice/Images/icons/map/marker-gasolineira.png",
        "StoreServicesImage": "https://media.jumbo.pt/MediaContent/Mapa_Servicos_loja/mapInfo_013GAS.jpg",
        "Address": {
            "Country": null,
            "StreetName": "Rua António Alves Ferreira, Nº 2",
            "ZipCode": "2560",
            "ZipCode2": "256",
            "DoorNumber": null,
            "Floor": null,
            "Fraction": null,
            "City": "Torres Vedras",
            "District": "Lisboa",
            "County": "Torres Vedras",
            "Latitude": 39.10142,
            "Longitude": -9.25436,
            "FullAddress": "Rua António Alves Ferreira, Nº 2    2560 - 256 Torres Vedras",
            "FullAddressWithoutZipCode": "Rua António Alves Ferreira, Nº 2   ",
            "FullZipCode": "2560 - 256 Torres Vedras",
            "AddressType": 3,
            "IsMainAddress": false,
            "Region": "",
            "Id": "013GAS_StoreAd",
            "DisplayName": "Ponto de Recolha na loja"
        },
        "SupportedServiceTypesAsString": [],
        "Schedule": "De 2ª a 5ªFeira das 7h-24h; 6ª Feira; Sábado e vésperas de Feriado das 7h-24h; Domingos e Feriados das 7h-24h; Páscoa 12/04 encerra às 13h; Dia 24/12 das 8h30-17h; Dia 31/12 das 8h30-18h",
        "VirtualAreaId": null,
        "Region": "",
        "Id": "013GAS",
        "DisplayName": "Gasolineira Torres Vedras"
    },
    {
        "Latitude": 38.77709,
        "Longitude": -9.21942,
        "Url": null,
        "SupportPhoneNumber": "210457450",
        "Icon": "/Frontoffice/Images/icons/map/marker-jumbo.png",
        "StoreServicesImage": "https://media.jumbo.pt/MediaContent/Mapa_Servicos_loja/mapInfo_014.jpg",
        "Address": {
            "Country": "",
            "StreetName": "Centro Comercial Dolce Vita Tejo, Rua Louro/Carpinteiro",
            "ZipCode": "2650",
            "ZipCode2": "435",
            "DoorNumber": "          ",
            "Floor": "          ",
            "Fraction": "          ",
            "City": "Amadora",
            "District": "Lisboa",
            "County": "Amadora",
            "Latitude": 38.77709,
            "Longitude": -9.21942,
            "FullAddress": "Centro Comercial Dolce Vita Tejo, Rua Louro/Carpinteiro Nº                                 2650 - 435 Amadora",
            "FullAddressWithoutZipCode": "Centro Comercial Dolce Vita Tejo, Rua Louro/Carpinteiro Nº                                ",
            "FullZipCode": "2650 - 435 Amadora",
            "AddressType": 3,
            "IsMainAddress": false,
            "Region": "Lisboa e Vale do Tejo",
            "Id": "014_StoreAd",
            "DisplayName": "Ponto de Recolha na loja"
        },
        "SupportedServiceTypesAsString": [
            "Compre na loja e receba em casa"
        ],
        "Schedule": "De 2ª a 5ªFeira das 9h-21h; 6ªFeira; Sáb. e vésp. de Feriado das 9h-21h; Domingos e Feriados das 9h-21h; Páscoa 12/04 encerra às 13h",
        "VirtualAreaId": null,
        "Region": "Lisboa e Vale do Tejo",
        "Id": "014",
        "DisplayName": "Auchan Amadora"
    },
    {
        "Latitude": 38.77379,
        "Longitude": -9.21598,
        "Url": "http://auchan.pt/CMS/Lojas/Lists/Gasolineiras/Gasolineira%20Guimaraes",
        "SupportPhoneNumber": "210457450",
        "Icon": "/Frontoffice/Images/icons/map/marker-gasolineira.png",
        "StoreServicesImage": "https://media.jumbo.pt/MediaContent/Mapa_Servicos_loja/mapInfo_014GAS.jpg",
        "Address": {
            "Country": null,
            "StreetName": "Avenida José Ruy",
            "ZipCode": "2650",
            "ZipCode2": "506",
            "DoorNumber": null,
            "Floor": null,
            "Fraction": null,
            "City": "Amadora",
            "District": "Lisboa",
            "County": "Amadora",
            "Latitude": 38.77379,
            "Longitude": -9.21598,
            "FullAddress": "Avenida José Ruy    2650 - 506 Amadora",
            "FullAddressWithoutZipCode": "Avenida José Ruy   ",
            "FullZipCode": "2650 - 506 Amadora",
            "AddressType": 3,
            "IsMainAddress": false,
            "Region": "",
            "Id": "014GAS_StoreAd",
            "DisplayName": "Ponto de Recolha na loja"
        },
        "SupportedServiceTypesAsString": [],
        "Schedule": "De 2ª a 5ªFeira das 7h-23h; 6ª Feira; Sábado e vésperas de Feriado das 7h-24h; Domingos e Feriados das 7h-23h; Páscoa 12/04 encerra às 13h; Dia 24/12 das8h30-17h; Dia 31/12 das 8h30-18h",
        "VirtualAreaId": null,
        "Region": "",
        "Id": "014GAS",
        "DisplayName": "Gasolineira Amadora"
    },
    {
        "Latitude": 38.70189,
        "Longitude": -9.41645,
        "Url": null,
        "SupportPhoneNumber": "210457300",
        "Icon": "/Frontoffice/Images/icons/map/marker-jumbo.png",
        "StoreServicesImage": "https://media.jumbo.pt/MediaContent/Mapa_Servicos_loja/mapInfo_015.jpg",
        "Address": {
            "Country": "",
            "StreetName": "Estrada Nacional 6",
            "ZipCode": "2754",
            "ZipCode2": "522",
            "DoorNumber": "          ",
            "Floor": "          ",
            "Fraction": "          ",
            "City": "Cascais",
            "District": "Lisboa",
            "County": "Cascais",
            "Latitude": 38.70189,
            "Longitude": -9.41645,
            "FullAddress": "Estrada Nacional 6 Nº                                 2754 - 522 Cascais",
            "FullAddressWithoutZipCode": "Estrada Nacional 6 Nº                                ",
            "FullZipCode": "2754 - 522 Cascais",
            "AddressType": 3,
            "IsMainAddress": false,
            "Region": "Lisboa e Vale do Tejo",
            "Id": "015_StoreAd",
            "DisplayName": "Ponto de Recolha na loja"
        },
        "SupportedServiceTypesAsString": [
            "Compre na loja e receba em casa"
        ],
        "Schedule": "De 2ª a 5ªFeira das 8h30-21h; 6ªFeira, Sáb. e vésp. de Feriado das 8h30-21h; Domingos e Feriados das 8h30-21h; Páscoa 12/04 encerra às 13h",
        "VirtualAreaId": null,
        "Region": "Lisboa e Vale do Tejo",
        "Id": "015",
        "DisplayName": "Auchan Cascais"
    },
    {
        "Latitude": 38.71635,
        "Longitude": -9.41841,
        "Url": "http://auchan.pt/CMS/Lojas/Lists/Gasolineiras/Gasolineira%20Cascais",
        "SupportPhoneNumber": "210457300",
        "Icon": "/Frontoffice/Images/icons/map/marker-gasolineira.png",
        "StoreServicesImage": "https://media.jumbo.pt/MediaContent/Mapa_Servicos_loja/mapInfo_015GAS.jpg",
        "Address": {
            "Country": null,
            "StreetName": "Avenida De Sintra / Cascais nº 1617 - Pai do Vento",
            "ZipCode": "2755",
            "ZipCode2": "318",
            "DoorNumber": null,
            "Floor": null,
            "Fraction": null,
            "City": "Alcabideche",
            "District": "Lisboa",
            "County": "Cascais",
            "Latitude": 38.71635,
            "Longitude": -9.41841,
            "FullAddress": "Avenida De Sintra / Cascais nº 1617 - Pai do Vento    2755 - 318 Alcabideche",
            "FullAddressWithoutZipCode": "Avenida De Sintra / Cascais nº 1617 - Pai do Vento   ",
            "FullZipCode": "2755 - 318 Alcabideche",
            "AddressType": 3,
            "IsMainAddress": false,
            "Region": "",
            "Id": "015GAS_StoreAd",
            "DisplayName": "Ponto de Recolha na loja"
        },
        "SupportedServiceTypesAsString": [],
        "Schedule": "De 2ª a 5ªFeira das 7h-24h; 6ª Feira; Sábado e vésperas de Feriado das 7h-24h; Domingos e Feriados das 7h-24h; Páscoa 12/04 encerra às 13h; Dia 24/12 das 8h30-17h; Dia 31/12 das 8h30-18h",
        "VirtualAreaId": null,
        "Region": "",
        "Id": "015GAS",
        "DisplayName": "Gasolineira Cascais"
    },
    {
        "Latitude": 41.20853,
        "Longitude": -8.68717,
        "Url": null,
        "SupportPhoneNumber": "227663450",
        "Icon": "/Frontoffice/Images/icons/map/marker-jumbo.png",
        "StoreServicesImage": "https://media.jumbo.pt/MediaContent/Mapa_Servicos_loja/mapInfo_016.jpg",
        "Address": {
            "Country": "",
            "StreetName": "Centro Comercial Mar Shopping, Avenida Óscar Lopes - Leça da Palmeira",
            "ZipCode": "4450",
            "ZipCode2": "820",
            "DoorNumber": "          ",
            "Floor": "          ",
            "Fraction": "          ",
            "City": "Matosinhos",
            "District": "Porto",
            "County": "Matosinhos",
            "Latitude": 41.20853,
            "Longitude": -8.68717,
            "FullAddress": "Centro Comercial Mar Shopping, Avenida Óscar Lopes - Leça da Palmeira Nº                                 4450 - 820 Matosinhos",
            "FullAddressWithoutZipCode": "Centro Comercial Mar Shopping, Avenida Óscar Lopes - Leça da Palmeira Nº                                ",
            "FullZipCode": "4450 - 820 Matosinhos",
            "AddressType": 3,
            "IsMainAddress": false,
            "Region": "Norte",
            "Id": "016_StoreAd",
            "DisplayName": "Ponto de Recolha na loja"
        },
        "SupportedServiceTypesAsString": [
            "Compre na loja e receba em casa"
        ],
        "Schedule": "De 2ª a 5ªFeira das 9h-21h; 6ªFeira, Sáb. e vésp. de Feriado das 9h-21h; Domingos e Feriados das 9h-21h; Páscoa 12/04 encerra às 13h",
        "VirtualAreaId": null,
        "Region": "Norte",
        "Id": "016",
        "DisplayName": "Auchan Matosinhos"
    },
    {
        "Latitude": 41.21015,
        "Longitude": -8.65456,
        "Url": "http://auchan.pt/CMS/Lojas/Lists/Gasolineiras/Gasolineira%20Matosinhos",
        "SupportPhoneNumber": "227663450",
        "Icon": "/Frontoffice/Images/icons/map/marker-gasolineira.png",
        "StoreServicesImage": "https://media.jumbo.pt/MediaContent/Mapa_Servicos_loja/mapInfo_016GAS.jpg",
        "Address": {
            "Country": null,
            "StreetName": "Avenida Fernando Távora, nº 1570 - Pedras Rubras",
            "ZipCode": "4470",
            "ZipCode2": "558",
            "DoorNumber": null,
            "Floor": null,
            "Fraction": null,
            "City": "Moreira",
            "District": "Porto",
            "County": "Maia",
            "Latitude": 41.21015,
            "Longitude": -8.65456,
            "FullAddress": "Avenida Fernando Távora, nº 1570 - Pedras Rubras    4470 - 558 Moreira",
            "FullAddressWithoutZipCode": "Avenida Fernando Távora, nº 1570 - Pedras Rubras   ",
            "FullZipCode": "4470 - 558 Moreira",
            "AddressType": 3,
            "IsMainAddress": false,
            "Region": "",
            "Id": "016GAS_StoreAd",
            "DisplayName": "Ponto de Recolha na loja"
        },
        "SupportedServiceTypesAsString": [],
        "Schedule": "De 2ª a 5ªFeira das 6h30-23h30; 6ª Feira; Sábado e vésperas de Feriado das 6h30-23h30; Domingos e Feriados das 7h-23h; Páscoa 12/04 encerra às 13h; Dia 24/12 das 8h30-17h; Dia 31/12 das 9h-19h",
        "VirtualAreaId": null,
        "Region": "",
        "Id": "016GAS",
        "DisplayName": "Gasolineira Matosinhos"
    },
    {
        "Latitude": 41.44894,
        "Longitude": -8.34251,
        "Url": "http://auchan.pt/CMS/Lojas/Lists/Jumbo%20e%20Pao%20Acucar/Jumbo%20de%20Guimaraes",
        "SupportPhoneNumber": "253143300",
        "Icon": "/Frontoffice/Images/icons/map/marker-jumbo.png",
        "StoreServicesImage": "https://media.jumbo.pt/MediaContent/Mapa_Servicos_loja/mapInfo_017.jpg",
        "Address": {
            "Country": "",
            "StreetName": "Espaço Guimarães, EN 206, Quinta do Ardão",
            "ZipCode": "4835",
            "ZipCode2": "400",
            "DoorNumber": "          ",
            "Floor": "          ",
            "Fraction": "          ",
            "City": "Guimarães",
            "District": "Braga",
            "County": "Guimarães",
            "Latitude": 41.44894,
            "Longitude": -8.34251,
            "FullAddress": "Espaço Guimarães, EN 206, Quinta do Ardão Nº                                 4835 - 400 Guimarães",
            "FullAddressWithoutZipCode": "Espaço Guimarães, EN 206, Quinta do Ardão Nº                                ",
            "FullZipCode": "4835 - 400 Guimarães",
            "AddressType": 3,
            "IsMainAddress": false,
            "Region": "Norte",
            "Id": "017_StoreAd",
            "DisplayName": "Ponto de Recolha na loja"
        },
        "SupportedServiceTypesAsString": [
            "Compre na loja e receba em casa"
        ],
        "Schedule": "De 2ª a 5ªFeira das 9h-21h; 6ªFeira, Sáb. e vésp. de Feriado das 9h-21h; Domingos e Feriados das 9h-21h; Páscoa 12/04 encerra às 13h",
        "VirtualAreaId": null,
        "Region": "Norte",
        "Id": "017",
        "DisplayName": "Auchan Guimarães"
    },
    {
        "Latitude": 40.61093,
        "Longitude": -8.71951,
        "Url": null,
        "SupportPhoneNumber": "234249200",
        "Icon": "/Frontoffice/Images/icons/map/marker-jumbo.png",
        "StoreServicesImage": "https://media.jumbo.pt/MediaContent/Mapa_Servicos_loja/mapInfo_506.jpg",
        "Address": {
            "Country": null,
            "StreetName": "Zona Industrial da Mota",
            "ZipCode": "3834",
            "ZipCode2": "906",
            "DoorNumber": null,
            "Floor": null,
            "Fraction": null,
            "City": "Gafanha da Encarnação",
            "District": "Aveiro",
            "County": "Ílhavo",
            "Latitude": 40.61093,
            "Longitude": -8.71951,
            "FullAddress": "Zona Industrial da Mota    3834 - 906 Gafanha da Encarnação",
            "FullAddressWithoutZipCode": "Zona Industrial da Mota   ",
            "FullZipCode": "3834 - 906 Gafanha da Encarnação",
            "AddressType": 3,
            "IsMainAddress": false,
            "Region": "",
            "Id": "506_StoreAd",
            "DisplayName": "Ponto de Recolha na loja"
        },
        "SupportedServiceTypesAsString": [
            "Compre na loja e receba em casa"
        ],
        "Schedule": "6ª das 16h15m-17h15m, excepto feriados.",
        "VirtualAreaId": "151",
        "Region": "",
        "Id": "506",
        "DisplayName": "Zona Industrial da Mota"
    },
    {
        "Latitude": 41.44743,
        "Longitude": -8.34138,
        "Url": "http://auchan.pt/CMS/Lojas/Lists/Gasolineiras/Gasolineira%20Guimaraes",
        "SupportPhoneNumber": "253143300",
        "Icon": "/Frontoffice/Images/icons/map/marker-gasolineira.png",
        "StoreServicesImage": "https://media.jumbo.pt/MediaContent/Mapa_Servicos_loja/mapInfo_017GAS.jpg",
        "Address": {
            "Country": null,
            "StreetName": "Rua 25 de Abril, 999 - Silvares",
            "ZipCode": "4835",
            "ZipCode2": "400",
            "DoorNumber": null,
            "Floor": null,
            "Fraction": null,
            "City": "Silvares",
            "District": "Braga",
            "County": "Guimarães",
            "Latitude": 41.44743,
            "Longitude": -8.34138,
            "FullAddress": "Rua 25 de Abril, 999 - Silvares    4835 - 400 Silvares",
            "FullAddressWithoutZipCode": "Rua 25 de Abril, 999 - Silvares   ",
            "FullZipCode": "4835 - 400 Silvares",
            "AddressType": 3,
            "IsMainAddress": false,
            "Region": "",
            "Id": "017GAS_StoreAd",
            "DisplayName": "Ponto de Recolha na loja"
        },
        "SupportedServiceTypesAsString": [],
        "Schedule": "De 2ª a 5ªFeira das 7h-23h; 6ª Feira; Sábado e vésperas de Feriado das 7h-23h; Domingos e Feriados das 7h-23h; Páscoa 12/04 encerra às 13h; Dia 24/12 das 8h30-17h; Dia 31/12 das 9h-19h",
        "VirtualAreaId": null,
        "Region": "",
        "Id": "017GAS",
        "DisplayName": "Gasolineira Guimarães"
    },
    {
        "Latitude": 38.70546,
        "Longitude": -9.29433,
        "Url": null,
        "SupportPhoneNumber": "210457130",
        "Icon": "/Frontoffice/Images/icons/map/marker-jumbo.png",
        "StoreServicesImage": "https://media.jumbo.pt/MediaContent/Mapa_Servicos_loja/mapInfo_018.jpg",
        "Address": {
            "Country": "Portugal",
            "StreetName": "Estrada de Paço de Arcos, Nº48",
            "ZipCode": "2770",
            "ZipCode2": "129",
            "DoorNumber": "          ",
            "Floor": "          ",
            "Fraction": "          ",
            "City": "Paço de Arcos",
            "District": "Lisboa",
            "County": "Oeiras",
            "Latitude": 38.70546,
            "Longitude": -9.29433,
            "FullAddress": "Estrada de Paço de Arcos, Nº48 Nº                                 2770 - 129 Paço de Arcos",
            "FullAddressWithoutZipCode": "Estrada de Paço de Arcos, Nº48 Nº                                ",
            "FullZipCode": "2770 - 129 Paço de Arcos",
            "AddressType": 3,
            "IsMainAddress": false,
            "Region": "Lisboa e Vale do Tejo",
            "Id": "018_StoreAd",
            "DisplayName": "Ponto de Recolha na loja"
        },
        "SupportedServiceTypesAsString": [
            "Compre na loja e receba em casa"
        ],
        "Schedule": "2ª a 5ªf 8h30-22h; 6ª, Sáb. e vésp. Fer. 8h30-23h; Dom. e Fer. 8h30-22h; DEZ - Dias 1, 6 a 8, 13 e 14  8h30-23h. 2 a 5, 9 a 12, 15 a 17 8h30-22h. 18 a 23 8h30-0h. 24 08h30-17h. Dia 25 Fech. 26 a 30 8h30-23h. Dia 31 8h30-18h. JAN - Dia 1 Fech.",
        "VirtualAreaId": null,
        "Region": "Lisboa e Vale do Tejo",
        "Id": "018",
        "DisplayName": "Auchan Paço de Arcos"
    },
    {
        "Latitude": 38.58290,
        "Longitude": -9.04462,
        "Url": null,
        "SupportPhoneNumber": "210457600",
        "Icon": "/Frontoffice/Images/icons/map/marker-jumbo.png",
        "StoreServicesImage": "https://media.jumbo.pt/MediaContent/Mapa_Servicos_loja/mapInfo_019.jpg",
        "Address": {
            "Country": "",
            "StreetName": "Barreiro Retail Park, Estrada Nacional 10 Km 18,5",
            "ZipCode": "2830",
            "ZipCode2": "411",
            "DoorNumber": "          ",
            "Floor": "          ",
            "Fraction": "          ",
            "City": "Coina",
            "District": "Setúbal",
            "County": "Barreiro",
            "Latitude": 38.58290,
            "Longitude": -9.04462,
            "FullAddress": "Barreiro Retail Park, Estrada Nacional 10 Km 18,5 Nº                                 2830 - 411 Coina",
            "FullAddressWithoutZipCode": "Barreiro Retail Park, Estrada Nacional 10 Km 18,5 Nº                                ",
            "FullZipCode": "2830 - 411 Coina",
            "AddressType": 3,
            "IsMainAddress": false,
            "Region": "Lisboa e Vale do Tejo",
            "Id": "019_StoreAd",
            "DisplayName": "Ponto de Recolha na loja"
        },
        "SupportedServiceTypesAsString": [
            "Compre na loja e receba em casa"
        ],
        "Schedule": "De 2ª a 5ªFeira das 9h-21h; 6ªFeira, Sáb. e vésp. de Feriado das 9h-21h; Domingos e Feriados das 9h-21h; Páscoa 12/04 encerra às 13h",
        "VirtualAreaId": null,
        "Region": "Lisboa e Vale do Tejo",
        "Id": "019",
        "DisplayName": "Auchan Coina"
    },
    {
        "Latitude": 38.58078,
        "Longitude": -9.04163,
        "Url": "http://auchan.pt/CMS/Lojas/Lists/Gasolineiras/Gasolineira%20Coina",
        "SupportPhoneNumber": "210457600",
        "Icon": "/Frontoffice/Images/icons/map/marker-gasolineira.png",
        "StoreServicesImage": "https://media.jumbo.pt/MediaContent/Mapa_Servicos_loja/mapInfo_019GAS.jpg",
        "Address": {
            "Country": null,
            "StreetName": "Barreiro Retail Planet. Estrada Nacional 10, Km 18,5",
            "ZipCode": "2830",
            "ZipCode2": "411",
            "DoorNumber": null,
            "Floor": null,
            "Fraction": null,
            "City": "Coina",
            "District": "Setúbal",
            "County": "Barreiro",
            "Latitude": 38.58078,
            "Longitude": -9.04163,
            "FullAddress": "Barreiro Retail Planet. Estrada Nacional 10, Km 18,5    2830 - 411 Coina",
            "FullAddressWithoutZipCode": "Barreiro Retail Planet. Estrada Nacional 10, Km 18,5   ",
            "FullZipCode": "2830 - 411 Coina",
            "AddressType": 3,
            "IsMainAddress": false,
            "Region": "",
            "Id": "019GAS_StoreAd",
            "DisplayName": "Ponto de Recolha na loja"
        },
        "SupportedServiceTypesAsString": [],
        "Schedule": "De 2ª a 5ªFeira das 7h15-22h; 6ª Feira; Sábado e vésperas de Feriado das 7h15-22h; Domingos e Feriados das 7h15-22h; Páscoa 12/04 encerra às 13h; Dia 24/12 das 8h30-17h; Dia 31/12 das 8h30-18h",
        "VirtualAreaId": null,
        "Region": "",
        "Id": "019GAS",
        "DisplayName": "Gasolineira Coina"
    },
    {
        "Latitude": 38.54971,
        "Longitude": -7.90520,
        "Url": null,
        "SupportPhoneNumber": "266247700",
        "Icon": "/Frontoffice/Images/icons/map/marker-jumbo.png",
        "StoreServicesImage": "https://media.jumbo.pt/MediaContent/Mapa_Servicos_loja/mapInfo_021.jpg",
        "Address": {
            "Country": "",
            "StreetName": "Rua Luís Adelino Fonseca, Lote 4",
            "ZipCode": "7005",
            "ZipCode2": "345",
            "DoorNumber": "          ",
            "Floor": "          ",
            "Fraction": "          ",
            "City": "Évora",
            "District": "Évora",
            "County": "Évora",
            "Latitude": 38.54971,
            "Longitude": -7.90520,
            "FullAddress": "Rua Luís Adelino Fonseca, Lote 4 Nº                                 7005 - 345 Évora",
            "FullAddressWithoutZipCode": "Rua Luís Adelino Fonseca, Lote 4 Nº                                ",
            "FullZipCode": "7005 - 345 Évora",
            "AddressType": 3,
            "IsMainAddress": false,
            "Region": "Sul",
            "Id": "021_StoreAd",
            "DisplayName": "Ponto de Recolha na loja"
        },
        "SupportedServiceTypesAsString": [
            "Compre na loja e receba em casa"
        ],
        "Schedule": "De 2ª a 5ªFeira das 9h-21h; 6ªFeira, Sáb. e vésp. de Feriado das 9h-21h; Domingos e Feriados das 9h-21h; Páscoa 12/04 encerra às 13h",
        "VirtualAreaId": null,
        "Region": "Sul",
        "Id": "021",
        "DisplayName": "Auchan Évora"
    },
    {
        "Latitude": 38.55034,
        "Longitude": -7.90592,
        "Url": null,
        "SupportPhoneNumber": "266247700",
        "Icon": "/Frontoffice/Images/icons/map/marker-gasolineira.png",
        "StoreServicesImage": "https://media.jumbo.pt/MediaContent/Mapa_Servicos_loja/mapInfo_021GAS.jpg",
        "Address": {
            "Country": null,
            "StreetName": "Rua Wernwer Siemens lote 9 Zona Industrial de Almeirim ",
            "ZipCode": "7005",
            "ZipCode2": "345",
            "DoorNumber": null,
            "Floor": null,
            "Fraction": null,
            "City": "Évora",
            "District": "Évora",
            "County": "Évora",
            "Latitude": 38.55034,
            "Longitude": -7.90592,
            "FullAddress": "Rua Wernwer Siemens lote 9 Zona Industrial de Almeirim     7005 - 345 Évora",
            "FullAddressWithoutZipCode": "Rua Wernwer Siemens lote 9 Zona Industrial de Almeirim    ",
            "FullZipCode": "7005 - 345 Évora",
            "AddressType": 3,
            "IsMainAddress": false,
            "Region": "",
            "Id": "021GAS_StoreAd",
            "DisplayName": "Ponto de Recolha na loja"
        },
        "SupportedServiceTypesAsString": [],
        "Schedule": "De 2ª a 5ªFeira das 8h-22h; 6ª Feira; Sábado e vésperas de Feriado das 8h-23h; Domingos e Feriados das 8h-22h; Páscoa 12/04 encerra às 13h; Dia 24/12 das 8h30-17h; Dia 31/12 das 8h30-18h",
        "VirtualAreaId": null,
        "Region": "",
        "Id": "021GAS",
        "DisplayName": "Gasolineira Évora"
    },
    {
        "Latitude": 37.14715,
        "Longitude": -8.54381,
        "Url": "http://www.auchan.pt/CMS/Lojas/Lists/Jumbo%20e%20Pao%20Acucar/Jumbo%20de%20Portimao",
        "SupportPhoneNumber": "282249200",
        "Icon": "/Frontoffice/Images/icons/map/marker-jumbo.png",
        "StoreServicesImage": "https://media.jumbo.pt/MediaContent/Mapa_Servicos_loja/mapInfo_023.jpg",
        "Address": {
            "Country": "",
            "StreetName": "Centro Comercial Aqua Shopping – EN125, Quinta de S. Pedro",
            "ZipCode": "8500",
            "ZipCode2": "524",
            "DoorNumber": "          ",
            "Floor": "          ",
            "Fraction": "          ",
            "City": "Portimão",
            "District": "Faro",
            "County": "Portimão",
            "Latitude": 37.14715,
            "Longitude": -8.54381,
            "FullAddress": "Centro Comercial Aqua Shopping – EN125, Quinta de S. Pedro Nº                                 8500 - 524 Portimão",
            "FullAddressWithoutZipCode": "Centro Comercial Aqua Shopping – EN125, Quinta de S. Pedro Nº                                ",
            "FullZipCode": "8500 - 524 Portimão",
            "AddressType": 3,
            "IsMainAddress": false,
            "Region": "Sul",
            "Id": "023_StoreAd",
            "DisplayName": "Ponto de Recolha na loja"
        },
        "SupportedServiceTypesAsString": [
            "Compre na loja e receba em casa"
        ],
        "Schedule": "De 2ª a 5ªFeira das 9h-21h; 6ªFeira, Sáb. e vésp. de Feriado das 9h-21h; Domingos e Feriados das 9h-21h; Páscoa 12/04 encerra às 13h",
        "VirtualAreaId": null,
        "Region": "Sul",
        "Id": "023",
        "DisplayName": "Auchan Portimão"
    },
    {
        "Latitude": 37.14777,
        "Longitude": -8.54600,
        "Url": "http://auchan.pt/CMS/Lojas/Lists/Gasolineiras/Gasolineira%20Portimao",
        "SupportPhoneNumber": "282249200",
        "Icon": "/Frontoffice/Images/icons/map/marker-gasolineira.png",
        "StoreServicesImage": "https://media.jumbo.pt/MediaContent/Mapa_Servicos_loja/mapInfo_023GAS.jpg",
        "Address": {
            "Country": null,
            "StreetName": "Centro Comercial Aqua Portimão, EN 125 Rua S.Pedro",
            "ZipCode": "8500",
            "ZipCode2": "524",
            "DoorNumber": null,
            "Floor": null,
            "Fraction": null,
            "City": "Portimão",
            "District": "Faro",
            "County": "Portimão",
            "Latitude": 37.14777,
            "Longitude": -8.54600,
            "FullAddress": "Centro Comercial Aqua Portimão, EN 125 Rua S.Pedro    8500 - 524 Portimão",
            "FullAddressWithoutZipCode": "Centro Comercial Aqua Portimão, EN 125 Rua S.Pedro   ",
            "FullZipCode": "8500 - 524 Portimão",
            "AddressType": 3,
            "IsMainAddress": false,
            "Region": "",
            "Id": "023GAS_StoreAd",
            "DisplayName": "Ponto de Recolha na loja"
        },
        "SupportedServiceTypesAsString": [],
        "Schedule": "De 2ª a 5ªFeira das 7h-24h; 6ª Feira; Sábado e vésperas de Feriado das 7h-24h; Domingos e Feriados das 7h-24h; Páscoa 12/04 encerra às 13h; Dia 24/12 das 8h30-17h; Dia 31/12 das 8h30-18h",
        "VirtualAreaId": null,
        "Region": "",
        "Id": "023GAS",
        "DisplayName": "Gasolineira Portimão"
    },
    {
        "Latitude": 38.72262,
        "Longitude": -9.16195,
        "Url": "http://www.box.pt",
        "SupportPhoneNumber": "210457900",
        "Icon": "/Frontoffice/Images/icons/map/marker-jumbo.png",
        "StoreServicesImage": "https://media.jumbo.pt/MediaContent/Mapa_Servicos_loja/mapInfo_024.jpg",
        "Address": {
            "Country": "",
            "StreetName": "Centro Comercial Amoreiras, Avenida Eng. Duarte Pacheco, Loja 1",
            "ZipCode": "1070",
            "ZipCode2": "103",
            "DoorNumber": "          ",
            "Floor": "          ",
            "Fraction": "          ",
            "City": "Lisboa",
            "District": "Lisboa",
            "County": "Lisboa",
            "Latitude": 38.72262,
            "Longitude": -9.16195,
            "FullAddress": "Centro Comercial Amoreiras, Avenida Eng. Duarte Pacheco, Loja 1 Nº                                 1070 - 103 Lisboa",
            "FullAddressWithoutZipCode": "Centro Comercial Amoreiras, Avenida Eng. Duarte Pacheco, Loja 1 Nº                                ",
            "FullZipCode": "1070 - 103 Lisboa",
            "AddressType": 3,
            "IsMainAddress": false,
            "Region": "Lisboa e Vale do Tejo",
            "Id": "024_StoreAd",
            "DisplayName": "Ponto de Recolha na loja"
        },
        "SupportedServiceTypesAsString": [
            "Compre na loja e receba em casa"
        ],
        "Schedule": "De 2ª a 5ªFeira das 8h30-21h; 6ªFeira, Sáb. e vésp. de Feriado das 8h30-21h; Domingos e Feriados das 8h30-21h; Páscoa 12/04 encerra às 13h",
        "VirtualAreaId": null,
        "Region": "Lisboa e Vale do Tejo",
        "Id": "024",
        "DisplayName": "Auchan Amoreiras"
    },
    {
        "Latitude": 38.72793,
        "Longitude": -9.21963,
        "Url": null,
        "SupportPhoneNumber": "210457000",
        "Icon": "/Frontoffice/Images/icons/map/marker-jumbo.png",
        "StoreServicesImage": "https://media.jumbo.pt/MediaContent/Mapa_Servicos_loja/mapInfo_025.jpg",
        "Address": {
            "Country": "",
            "StreetName": "Centro Comercial Alegro, Avenida dos Cavaleiros",
            "ZipCode": "2790",
            "ZipCode2": "045",
            "DoorNumber": "          ",
            "Floor": "          ",
            "Fraction": "          ",
            "City": "Carnaxide",
            "District": "Lisboa",
            "County": "Oeiras",
            "Latitude": 38.72793,
            "Longitude": -9.21963,
            "FullAddress": "Centro Comercial Alegro, Avenida dos Cavaleiros Nº                                 2790 - 045 Carnaxide",
            "FullAddressWithoutZipCode": "Centro Comercial Alegro, Avenida dos Cavaleiros Nº                                ",
            "FullZipCode": "2790 - 045 Carnaxide",
            "AddressType": 3,
            "IsMainAddress": false,
            "Region": "Lisboa e Vale do Tejo",
            "Id": "025_StoreAd",
            "DisplayName": "Ponto de Recolha na loja"
        },
        "SupportedServiceTypesAsString": [
            "Compre na loja e receba em casa"
        ],
        "Schedule": "De 2ª a 5ªFeira das 9h-21h; 6ªFeira, Sáb. e vésp. de Feriado das 9h-21h; Domingos e Feriados das 9h-21h; Páscoa 12/04 encerra às 13h",
        "VirtualAreaId": null,
        "Region": "Lisboa e Vale do Tejo",
        "Id": "025",
        "DisplayName": "Auchan Alfragide"
    },
    {
        "Latitude": 38.73111,
        "Longitude": -9.22591,
        "Url": "http://auchan.pt/CMS/Lojas/Lists/Gasolineiras/Gasolineira%20Alfragide",
        "SupportPhoneNumber": "210457000",
        "Icon": "/Frontoffice/Images/icons/map/marker-gasolineira.png",
        "StoreServicesImage": "https://media.jumbo.pt/MediaContent/Mapa_Servicos_loja/mapInfo_025GAS.jpg",
        "Address": {
            "Country": null,
            "StreetName": "Rua da Quinta do Salrego - Lote 12",
            "ZipCode": "2790",
            "ZipCode2": "144",
            "DoorNumber": null,
            "Floor": null,
            "Fraction": null,
            "City": "Carnaxide",
            "District": "Lisboa",
            "County": "Oeiras",
            "Latitude": 38.73111,
            "Longitude": -9.22591,
            "FullAddress": "Rua da Quinta do Salrego - Lote 12    2790 - 144 Carnaxide",
            "FullAddressWithoutZipCode": "Rua da Quinta do Salrego - Lote 12   ",
            "FullZipCode": "2790 - 144 Carnaxide",
            "AddressType": 3,
            "IsMainAddress": false,
            "Region": "",
            "Id": "025GAS_StoreAd",
            "DisplayName": "Ponto de Recolha na loja"
        },
        "SupportedServiceTypesAsString": [],
        "Schedule": "De 2ª a 5ªFeira das 7h-24h; 6ª Feira; Sábado e vésperas de Feriado das 7h-24h; Domingos e Feriados das 7h-24h; Páscoa 12/04 encerra às 13h; Dia 24/12 das 8h-17h; Dia 31/12 das 8h30-18h",
        "VirtualAreaId": null,
        "Region": "",
        "Id": "025GAS",
        "DisplayName": "Gasolineira Alfragide"
    },
    {
        "Latitude": 41.24876,
        "Longitude": -8.62270,
        "Url": null,
        "SupportPhoneNumber": "227663150",
        "Icon": "/Frontoffice/Images/icons/map/marker-jumbo.png",
        "StoreServicesImage": "https://media.jumbo.pt/MediaContent/Mapa_Servicos_loja/mapInfo_026.jpg",
        "Address": {
            "Country": "",
            "StreetName": "Estrada Nacional 14, Lugar Chiolo - Barca",
            "ZipCode": "4475",
            "ZipCode2": "045",
            "DoorNumber": "          ",
            "Floor": "          ",
            "Fraction": "          ",
            "City": "Maia",
            "District": "Porto",
            "County": "Maia",
            "Latitude": 41.24876,
            "Longitude": -8.62270,
            "FullAddress": "Estrada Nacional 14, Lugar Chiolo - Barca Nº                                 4475 - 045 Maia",
            "FullAddressWithoutZipCode": "Estrada Nacional 14, Lugar Chiolo - Barca Nº                                ",
            "FullZipCode": "4475 - 045 Maia",
            "AddressType": 3,
            "IsMainAddress": false,
            "Region": "Norte",
            "Id": "026_StoreAd",
            "DisplayName": "Ponto de Recolha na loja"
        },
        "SupportedServiceTypesAsString": [
            "Compre na loja e receba em casa"
        ],
        "Schedule": "De 2ª a 5ªFeira das 9h-21h; 6ªFeira, Sáb. e vésp. de Feriado das 9h-21h; Domingos e Feriados das 9h-21h; Páscoa 12/04 encerra às 13h",
        "VirtualAreaId": null,
        "Region": "Norte",
        "Id": "026",
        "DisplayName": "Auchan Maia"
    },
    {
        "Latitude": 41.25001,
        "Longitude": -8.62018,
        "Url": "http://auchan.pt/CMS/Lojas/Lists/Gasolineiras/Gasolineira%20Maia",
        "SupportPhoneNumber": "227663150",
        "Icon": "/Frontoffice/Images/icons/map/marker-gasolineira.png",
        "StoreServicesImage": "https://media.jumbo.pt/MediaContent/Mapa_Servicos_loja/mapInfo_026GAS.jpg",
        "Address": {
            "Country": null,
            "StreetName": "Rua Velha de Mandim, nº67",
            "ZipCode": "4470",
            "ZipCode2": "053",
            "DoorNumber": null,
            "Floor": null,
            "Fraction": null,
            "City": "Gueifães",
            "District": "Porto",
            "County": "Maia",
            "Latitude": 41.25001,
            "Longitude": -8.62018,
            "FullAddress": "Rua Velha de Mandim, nº67    4470 - 053 Gueifães",
            "FullAddressWithoutZipCode": "Rua Velha de Mandim, nº67   ",
            "FullZipCode": "4470 - 053 Gueifães",
            "AddressType": 3,
            "IsMainAddress": false,
            "Region": "",
            "Id": "026GAS_StoreAd",
            "DisplayName": "Ponto de Recolha na loja"
        },
        "SupportedServiceTypesAsString": [],
        "Schedule": "De 2ª a 5ªFeira das 7h-24h; 6ª Feira; Sábado e vésperas de Feriado das 7h-24h; Domingos e Feriados das 7h-24h; Páscoa 12/04 encerra às 13h; Dia 24/12 das 8h30-17h; Dia 31/12 das 8h30-19h",
        "VirtualAreaId": null,
        "Region": "",
        "Id": "026GAS",
        "DisplayName": "Gasolineira Maia"
    },
    {
        "Latitude": 38.53768,
        "Longitude": -8.87600,
        "Url": "http://www.jumbo.pt",
        "SupportPhoneNumber": "265249300",
        "Icon": "/Frontoffice/Images/icons/map/marker-jumbo.png",
        "StoreServicesImage": "https://media.jumbo.pt/MediaContent/Mapa_Servicos_loja/mapInfo_027.jpg",
        "Address": {
            "Country": "Portugal",
            "StreetName": "Centro Comercial Alegro, Avenida Coração de Maria",
            "ZipCode": "2910",
            "ZipCode2": "031",
            "DoorNumber": "          ",
            "Floor": "          ",
            "Fraction": "          ",
            "City": "Setúbal",
            "District": "Setúbal",
            "County": "Setúbal",
            "Latitude": 38.53768,
            "Longitude": -8.87600,
            "FullAddress": "Centro Comercial Alegro, Avenida Coração de Maria Nº                                 2910 - 031 Setúbal",
            "FullAddressWithoutZipCode": "Centro Comercial Alegro, Avenida Coração de Maria Nº                                ",
            "FullZipCode": "2910 - 031 Setúbal",
            "AddressType": 3,
            "IsMainAddress": false,
            "Region": "Lisboa e Vale do Tejo",
            "Id": "027_StoreAd",
            "DisplayName": "Ponto de Recolha na loja"
        },
        "SupportedServiceTypesAsString": [
            "Compre na loja e receba em casa"
        ],
        "Schedule": "De 2ª a 5ªFeira das 9h-21h; 6ªFeira, Sáb. e vésp. de Feriado das 9h-21h; Domingos e Feriados das 9h-21h; Páscoa 12/04 encerra às 13h",
        "VirtualAreaId": null,
        "Region": "Lisboa e Vale do Tejo",
        "Id": "027",
        "DisplayName": "Auchan Setúbal"
    },
    {
        "Latitude": 38.53493,
        "Longitude": -8.86257,
        "Url": "http://auchan.pt/CMS/Lojas/Lists/Gasolineiras/Gasolineira%20Setubal",
        "SupportPhoneNumber": "265249300",
        "Icon": "/Frontoffice/Images/icons/map/marker-gasolineira.png",
        "StoreServicesImage": "https://media.jumbo.pt/MediaContent/Mapa_Servicos_loja/mapInfo_027GAS.jpg",
        "Address": {
            "Country": null,
            "StreetName": "Rua Engº Ferreira Dias - Vale do Cobre",
            "ZipCode": "2910",
            "ZipCode2": "000",
            "DoorNumber": null,
            "Floor": null,
            "Fraction": null,
            "City": "Vale do Cobro",
            "District": "Setúbal",
            "County": "Setúbal",
            "Latitude": 38.53493,
            "Longitude": -8.86257,
            "FullAddress": "Rua Engº Ferreira Dias - Vale do Cobre    2910 - 000 Vale do Cobro",
            "FullAddressWithoutZipCode": "Rua Engº Ferreira Dias - Vale do Cobre   ",
            "FullZipCode": "2910 - 000 Vale do Cobro",
            "AddressType": 3,
            "IsMainAddress": false,
            "Region": "",
            "Id": "027GAS_StoreAd",
            "DisplayName": "Ponto de Recolha na loja"
        },
        "SupportedServiceTypesAsString": [],
        "Schedule": "De 2ª a 5ªFeira das 7h-21h; 6ª Feira; Sábado e vésperas de Feriado das 7h-21h; Domingos e Feriados das 7h-21h; Páscoa 12/04 encerra às 13h; Dia 24/12 das 8h30-17h; Dia 31/12 das 8h30-18h",
        "VirtualAreaId": null,
        "Region": "",
        "Id": "027GAS",
        "DisplayName": "Gasolineira Setubal"
    },
    {
        "Latitude": 39.81628,
        "Longitude": -7.51962,
        "Url": null,
        "SupportPhoneNumber": "272247100",
        "Icon": "/Frontoffice/Images/icons/map/marker-jumbo.png",
        "StoreServicesImage": "https://media.jumbo.pt/MediaContent/Mapa_Servicos_loja/mapInfo_028.jpg",
        "Address": {
            "Country": "",
            "StreetName": "Rua A, Zona Industrial",
            "ZipCode": "6000",
            "ZipCode2": "459",
            "DoorNumber": "          ",
            "Floor": "          ",
            "Fraction": "          ",
            "City": "Castelo Branco",
            "District": "Castelo Branco",
            "County": "Castelo Branco",
            "Latitude": 39.81628,
            "Longitude": -7.51962,
            "FullAddress": "Rua A, Zona Industrial Nº                                 6000 - 459 Castelo Branco",
            "FullAddressWithoutZipCode": "Rua A, Zona Industrial Nº                                ",
            "FullZipCode": "6000 - 459 Castelo Branco",
            "AddressType": 3,
            "IsMainAddress": false,
            "Region": "Centro",
            "Id": "028_StoreAd",
            "DisplayName": "Ponto de Recolha na loja"
        },
        "SupportedServiceTypesAsString": [
            "Compre na loja e receba em casa"
        ],
        "Schedule": "De 2ª a 5ªFeira das 9h-21h; 6ªFeira, Sáb. e vésp. de Feriado das 9h-21h; Domingos e Feriados das 9h-21h; Páscoa 12/04 encerra às 13h",
        "VirtualAreaId": null,
        "Region": "Centro",
        "Id": "028",
        "DisplayName": "Auchan Castelo Branco"
    },
    {
        "Latitude": 39.81452,
        "Longitude": -7.52127,
        "Url": "http://auchan.pt/CMS/Lojas/Lists/Gasolineiras/Gasolineira%20Castelo%20Branco",
        "SupportPhoneNumber": "272247100",
        "Icon": "/Frontoffice/Images/icons/map/marker-gasolineira.png",
        "StoreServicesImage": "https://media.jumbo.pt/MediaContent/Mapa_Servicos_loja/mapInfo_028GAS.jpg",
        "Address": {
            "Country": null,
            "StreetName": "Zona Industrial",
            "ZipCode": "6000",
            "ZipCode2": "459",
            "DoorNumber": null,
            "Floor": null,
            "Fraction": null,
            "City": "Castelo Branco",
            "District": "Castelo Branco",
            "County": "Castelo Branco",
            "Latitude": 39.81452,
            "Longitude": -7.52127,
            "FullAddress": "Zona Industrial    6000 - 459 Castelo Branco",
            "FullAddressWithoutZipCode": "Zona Industrial   ",
            "FullZipCode": "6000 - 459 Castelo Branco",
            "AddressType": 3,
            "IsMainAddress": false,
            "Region": "",
            "Id": "028GAS_StoreAd",
            "DisplayName": "Ponto de Recolha na loja"
        },
        "SupportedServiceTypesAsString": [],
        "Schedule": "De 2ª a 5ªFeira das 7h-22h; 6ª Feira; Sábado e vésperas de Feriado das 7h-22h; Domingos e Feriados das 7h-22h; Páscoa 12/04 encerra às 13h; Dia 24/12 das 8h30-17h; Dia 31/12 das 9h-18h",
        "VirtualAreaId": null,
        "Region": "",
        "Id": "028GAS",
        "DisplayName": "Gasolineira Castelo Branco"
    },
    {
        "Latitude": 38.88866,
        "Longitude": -9.04341,
        "Url": null,
        "SupportPhoneNumber": "212698100",
        "Icon": "/Frontoffice/Images/icons/map/marker-jumbo.png",
        "StoreServicesImage": "https://media.jumbo.pt/MediaContent/Mapa_Servicos_loja/mapInfo_029.jpg",
        "Address": {
            "Country": "Portugal",
            "StreetName": "Quinta das Drogas da Verdelha E.N.10",
            "ZipCode": "2615",
            "ZipCode2": "170",
            "DoorNumber": "          ",
            "Floor": "          ",
            "Fraction": "          ",
            "City": "Alverca do Ribatejo",
            "District": "Lisboa",
            "County": "Vila Franca de Xira",
            "Latitude": 38.88866,
            "Longitude": -9.04341,
            "FullAddress": "Quinta das Drogas da Verdelha E.N.10 Nº                                 2615 - 170 Alverca do Ribatejo",
            "FullAddressWithoutZipCode": "Quinta das Drogas da Verdelha E.N.10 Nº                                ",
            "FullZipCode": "2615 - 170 Alverca do Ribatejo",
            "AddressType": 3,
            "IsMainAddress": false,
            "Region": "Lisboa e Vale do Tejo",
            "Id": "029_StoreAd",
            "DisplayName": "Ponto de Recolha na loja"
        },
        "SupportedServiceTypesAsString": [
            "Compre na loja e receba em casa"
        ],
        "Schedule": "De 2ª a 5ªFeira das 8h30-21h; 6ªFeira, Sáb. e vésp. de Feriado das 8h30-21h; Domingos e Feriados das 8h30-21h; Páscoa 12/04 encerra às 13h",
        "VirtualAreaId": null,
        "Region": "Lisboa e Vale do Tejo",
        "Id": "029",
        "DisplayName": "Auchan Alverca"
    },
    {
        "Latitude": 38.88864,
        "Longitude": -9.04197,
        "Url": "http://auchan.pt/CMS/Lojas/Lists/Gasolineiras/Gasolineira%20Alverca",
        "SupportPhoneNumber": "212698100",
        "Icon": "/Frontoffice/Images/icons/map/marker-gasolineira.png",
        "StoreServicesImage": "https://media.jumbo.pt/MediaContent/Mapa_Servicos_loja/mapInfo_029GAS.jpg",
        "Address": {
            "Country": null,
            "StreetName": "Quinta das Drogas da Verdelha E.N.10",
            "ZipCode": "2615",
            "ZipCode2": "170",
            "DoorNumber": null,
            "Floor": null,
            "Fraction": null,
            "City": "Alverca do Ribatejo",
            "District": "Lisboa",
            "County": "Vila Franca de Xira",
            "Latitude": 38.88864,
            "Longitude": -9.04197,
            "FullAddress": "Quinta das Drogas da Verdelha E.N.10    2615 - 170 Alverca do Ribatejo",
            "FullAddressWithoutZipCode": "Quinta das Drogas da Verdelha E.N.10   ",
            "FullZipCode": "2615 - 170 Alverca do Ribatejo",
            "AddressType": 3,
            "IsMainAddress": false,
            "Region": "",
            "Id": "029GAS_StoreAd",
            "DisplayName": "Ponto de Recolha na loja"
        },
        "SupportedServiceTypesAsString": [],
        "Schedule": "De 2ª a 5ªFeira das 7h-24h; 6ª Feira; Sábado e vésperas de Feriado das 7h-24h; Domingos e Feriados das 7h-24h; Páscoa 12/04 encerra às 13h; Dia 24/12 das 8h30-17h; Dia 31/12 das 8h30-18h",
        "VirtualAreaId": null,
        "Region": "",
        "Id": "029GAS",
        "DisplayName": "Gasolineira Alverca"
    },
    {
        "Latitude": 41.33169,
        "Longitude": -8.47727,
        "Url": "http://www.sapo.pt",
        "SupportPhoneNumber": "252147350",
        "Icon": "/Frontoffice/Images/icons/map/marker-jumbo.png",
        "StoreServicesImage": "https://media.jumbo.pt/MediaContent/Mapa_Servicos_loja/mapInfo_030.jpg",
        "Address": {
            "Country": "",
            "StreetName": "Rua das Rãs",
            "ZipCode": "4780",
            "ZipCode2": "536",
            "DoorNumber": "          ",
            "Floor": "          ",
            "Fraction": "          ",
            "City": "Santo Tirso",
            "District": "Porto",
            "County": "Santo Tirso",
            "Latitude": 41.33169,
            "Longitude": -8.47727,
            "FullAddress": "Rua das Rãs Nº                                 4780 - 536 Santo Tirso",
            "FullAddressWithoutZipCode": "Rua das Rãs Nº                                ",
            "FullZipCode": "4780 - 536 Santo Tirso",
            "AddressType": 3,
            "IsMainAddress": false,
            "Region": "Norte",
            "Id": "030_StoreAd",
            "DisplayName": "Ponto de Recolha na loja"
        },
        "SupportedServiceTypesAsString": [
            "Compre na loja e receba em casa"
        ],
        "Schedule": "De 2ª a 5ªFeira das 8h30-21h; 6ªFeira, Sáb. e vésp. de Feriado das 8h30-21h; Domingos e Feriados das 8h30-21h; Páscoa 12/04 encerra às 13h",
        "VirtualAreaId": null,
        "Region": "Norte",
        "Id": "030",
        "DisplayName": "Auchan Santo Tirso"
    },
    {
        "Latitude": 41.33236,
        "Longitude": -8.47699,
        "Url": "http://auchan.pt/CMS/Lojas/Lists/Gasolineiras/Gasolineira%20Santo%20Tirso",
        "SupportPhoneNumber": "252147350",
        "Icon": "/Frontoffice/Images/icons/map/marker-gasolineira.png",
        "StoreServicesImage": "https://media.jumbo.pt/MediaContent/Mapa_Servicos_loja/mapInfo_030GAS.jpg",
        "Address": {
            "Country": null,
            "StreetName": "Rua das Rãs",
            "ZipCode": "4780",
            "ZipCode2": "219",
            "DoorNumber": null,
            "Floor": null,
            "Fraction": null,
            "City": "Santo Tirso",
            "District": "Porto",
            "County": "Santo Tirso",
            "Latitude": 41.33236,
            "Longitude": -8.47699,
            "FullAddress": "Rua das Rãs    4780 - 219 Santo Tirso",
            "FullAddressWithoutZipCode": "Rua das Rãs   ",
            "FullZipCode": "4780 - 219 Santo Tirso",
            "AddressType": 3,
            "IsMainAddress": false,
            "Region": "",
            "Id": "030GAS_StoreAd",
            "DisplayName": "Ponto de Recolha na loja"
        },
        "SupportedServiceTypesAsString": [],
        "Schedule": "De 2ª a 5ªFeira das 7h-22h; 6ª Feira; Sábado e vésperas de Feriado das 7h-22h; Domingos e Feriados das 7h-21h; Páscoa 12/04 encerra às 13h; Dia 24/12 das 9h-17h; Dia 31/12 das 9h-19h",
        "VirtualAreaId": null,
        "Region": "",
        "Id": "030GAS",
        "DisplayName": "Gasolineira S Tirso"
    },
    {
        "Latitude": 41.41287,
        "Longitude": -8.51301,
        "Url": null,
        "SupportPhoneNumber": "252147200",
        "Icon": "/Frontoffice/Images/icons/map/marker-jumbo.png",
        "StoreServicesImage": "https://media.jumbo.pt/MediaContent/Mapa_Servicos_loja/mapInfo_031.jpg",
        "Address": {
            "Country": "",
            "StreetName": "Avenida do Brasil, Quinta da Barberia - Antas",
            "ZipCode": "4760",
            "ZipCode2": "010",
            "DoorNumber": "          ",
            "Floor": "          ",
            "Fraction": "          ",
            "City": "Vila Nova de Famalicão",
            "District": "Braga",
            "County": "Vila Nova de Famalicão",
            "Latitude": 41.41287,
            "Longitude": -8.51301,
            "FullAddress": "Avenida do Brasil, Quinta da Barberia - Antas Nº                                 4760 - 010 Vila Nova de Famalicão",
            "FullAddressWithoutZipCode": "Avenida do Brasil, Quinta da Barberia - Antas Nº                                ",
            "FullZipCode": "4760 - 010 Vila Nova de Famalicão",
            "AddressType": 3,
            "IsMainAddress": false,
            "Region": "Norte",
            "Id": "031_StoreAd",
            "DisplayName": "Ponto de Recolha na loja"
        },
        "SupportedServiceTypesAsString": [
            "Compre na loja e receba em casa"
        ],
        "Schedule": "De 2ª a 5ªFeira das 9h-21h; 6ªFeira, Sáb. e vésp. de Feriado das 9h-21h; Domingos e Feriados das 9h-21h; Páscoa 12/04 encerra às 13h",
        "VirtualAreaId": null,
        "Region": "Norte",
        "Id": "031",
        "DisplayName": "Auchan Famalicão"
    },
    {
        "Latitude": 41.41181,
        "Longitude": -8.51264,
        "Url": "http://www.auchan.pt/CMS/Lojas/Lists/Gasolineiras/Gasolineira%20Famalic%C3%A3o",
        "SupportPhoneNumber": "252147200",
        "Icon": "/Frontoffice/Images/icons/map/marker-gasolineira.png",
        "StoreServicesImage": "https://media.jumbo.pt/MediaContent/Mapa_Servicos_loja/mapInfo_031GAS.jpg",
        "Address": {
            "Country": null,
            "StreetName": "EN 206 Avenida do Brasil",
            "ZipCode": "4760",
            "ZipCode2": "010",
            "DoorNumber": null,
            "Floor": null,
            "Fraction": null,
            "City": "Vila Nova de Famalicão",
            "District": "Braga",
            "County": "Vila Nova de Famalicão",
            "Latitude": 41.41181,
            "Longitude": -8.51264,
            "FullAddress": "EN 206 Avenida do Brasil    4760 - 010 Vila Nova de Famalicão",
            "FullAddressWithoutZipCode": "EN 206 Avenida do Brasil   ",
            "FullZipCode": "4760 - 010 Vila Nova de Famalicão",
            "AddressType": 3,
            "IsMainAddress": false,
            "Region": "",
            "Id": "031GAS_StoreAd",
            "DisplayName": "Ponto de Recolha na loja"
        },
        "SupportedServiceTypesAsString": [],
        "Schedule": "De 2ª a 5ªFeira das 7h-23h; 6ª Feira; Sábado e vésperas de Feriado das 7h-23h; Domingos e Feriados das 7h-22h; Páscoa 12/04 encerra às 13h; Dia 24/12 das 9h-17h; Dia 31/12 das 9h-19h",
        "VirtualAreaId": null,
        "Region": "",
        "Id": "031GAS",
        "DisplayName": "Gasolineira Famalicão"
    },
    {
        "Latitude": 40.62685,
        "Longitude": -8.64427,
        "Url": null,
        "SupportPhoneNumber": "234249200",
        "Icon": "/Frontoffice/Images/icons/map/marker-jumbo.png",
        "StoreServicesImage": "https://media.jumbo.pt/MediaContent/Mapa_Servicos_loja/mapInfo_032.jpg",
        "Address": {
            "Country": "",
            "StreetName": "Centro Comercial Glicínias, Rua D. Manuel Barbuda e Vasconcelos",
            "ZipCode": "3810",
            "ZipCode2": "498",
            "DoorNumber": "          ",
            "Floor": "          ",
            "Fraction": "          ",
            "City": "Aradas",
            "District": "Aveiro",
            "County": "Aveiro",
            "Latitude": 40.62685,
            "Longitude": -8.64427,
            "FullAddress": "Centro Comercial Glicínias, Rua D. Manuel Barbuda e Vasconcelos Nº                                 3810 - 498 Aradas",
            "FullAddressWithoutZipCode": "Centro Comercial Glicínias, Rua D. Manuel Barbuda e Vasconcelos Nº                                ",
            "FullZipCode": "3810 - 498 Aradas",
            "AddressType": 3,
            "IsMainAddress": false,
            "Region": "Centro",
            "Id": "032_StoreAd",
            "DisplayName": "Ponto de Recolha na loja"
        },
        "SupportedServiceTypesAsString": [
            "Compre na loja e receba em casa"
        ],
        "Schedule": "De 2ª a 5ªFeira das 9h-21h; 6ªFeira, Sáb. e vésp. de Feriado das 9h-21h; Domingos e Feriados das 9h-21h; Páscoa 12/04 encerra às 13h",
        "VirtualAreaId": null,
        "Region": "Centro",
        "Id": "032",
        "DisplayName": "Auchan Aveiro"
    },
    {
        "Latitude": 40.62718,
        "Longitude": -8.64662,
        "Url": "http://auchan.pt/CMS/Lojas/Lists/Gasolineiras/Gasolineira%20Aveiro",
        "SupportPhoneNumber": "234249200",
        "Icon": "/Frontoffice/Images/icons/map/marker-gasolineira.png",
        "StoreServicesImage": "https://media.jumbo.pt/MediaContent/Mapa_Servicos_loja/mapInfo_032GAS.jpg",
        "Address": {
            "Country": null,
            "StreetName": "Centro Comercial Glicinias, E.N. 109",
            "ZipCode": "3810",
            "ZipCode2": "902",
            "DoorNumber": null,
            "Floor": null,
            "Fraction": null,
            "City": "Aradas",
            "District": "Aveiro",
            "County": "Aveiro",
            "Latitude": 40.62718,
            "Longitude": -8.64662,
            "FullAddress": "Centro Comercial Glicinias, E.N. 109    3810 - 902 Aradas",
            "FullAddressWithoutZipCode": "Centro Comercial Glicinias, E.N. 109   ",
            "FullZipCode": "3810 - 902 Aradas",
            "AddressType": 3,
            "IsMainAddress": false,
            "Region": "",
            "Id": "032GAS_StoreAd",
            "DisplayName": "Ponto de Recolha na loja"
        },
        "SupportedServiceTypesAsString": [],
        "Schedule": "De 2ª a 5ªFeira das 7h-24h; 6ª Feira; Sábado e vésperas de Feriado das 7h-24h; Domingos e Feriados das 7h-24h; Páscoa 12/04 encerra às 13h; Dia 24/12 das 8h30-17h; Dia 31/12 das 8h30-18h",
        "VirtualAreaId": null,
        "Region": "",
        "Id": "032GAS",
        "DisplayName": "Gasolineira Aveiro"
    },
    {
        "Latitude": 37.02894,
        "Longitude": -7.94461,
        "Url": "http://www.lojadefaro.pt",
        "SupportPhoneNumber": "289243500",
        "Icon": "/Frontoffice/Images/icons/map/marker-jumbo.png",
        "StoreServicesImage": "https://media.jumbo.pt/MediaContent/Mapa_Servicos_loja/mapInfo_033.jpg",
        "Address": {
            "Country": "",
            "StreetName": "Fórum Algarve, Estrada Nacional 125, Km 103",
            "ZipCode": "8009",
            "ZipCode2": "126",
            "DoorNumber": "          ",
            "Floor": "          ",
            "Fraction": "          ",
            "City": "Faro",
            "District": "Faro",
            "County": "Faro",
            "Latitude": 37.02894,
            "Longitude": -7.94461,
            "FullAddress": "Fórum Algarve, Estrada Nacional 125, Km 103 Nº                                 8009 - 126 Faro",
            "FullAddressWithoutZipCode": "Fórum Algarve, Estrada Nacional 125, Km 103 Nº                                ",
            "FullZipCode": "8009 - 126 Faro",
            "AddressType": 3,
            "IsMainAddress": false,
            "Region": "Sul",
            "Id": "033_StoreAd",
            "DisplayName": "Ponto de Recolha na loja"
        },
        "SupportedServiceTypesAsString": [
            "Compre na loja e receba em casa"
        ],
        "Schedule": "De 2ª a 5ªFeira das 9h-21h; 6ªFeira, Sáb. e vésp. de Feriado das 9h-21h; Domingos e Feriados das 9h-21h; Páscoa 12/04 encerra às 13h",
        "VirtualAreaId": null,
        "Region": "Sul",
        "Id": "033",
        "DisplayName": "Auchan Faro"
    },
    {
        "Latitude": 38.71467,
        "Longitude": -9.23130,
        "Url": null,
        "SupportPhoneNumber": "213546131",
        "Icon": "/Frontoffice/Images/icons/map/marker-jumbo.png",
        "StoreServicesImage": "https://media.jumbo.pt/MediaContent/Mapa_Servicos_loja/mapInfo_507.jpg",
        "Address": {
            "Country": null,
            "StreetName": "Avenida José Gomes Ferreira 11C - Miraflores (no interior do Atlas Parking)",
            "ZipCode": "1495",
            "ZipCode2": "139",
            "DoorNumber": null,
            "Floor": null,
            "Fraction": null,
            "City": "Algés",
            "District": "Lisboa",
            "County": "Oeiras",
            "Latitude": 38.71467,
            "Longitude": -9.23130,
            "FullAddress": "Avenida José Gomes Ferreira 11C - Miraflores (no interior do Atlas Parking)    1495 - 139 Algés",
            "FullAddressWithoutZipCode": "Avenida José Gomes Ferreira 11C - Miraflores (no interior do Atlas Parking)   ",
            "FullZipCode": "1495 - 139 Algés",
            "AddressType": 3,
            "IsMainAddress": false,
            "Region": "",
            "Id": "507_StoreAd",
            "DisplayName": "Ponto de Recolha na loja"
        },
        "SupportedServiceTypesAsString": [
            "Compre na loja e receba em casa"
        ],
        "Schedule": "De 2ª a 6ª feira das 16h - 23h; Sábado das 11h - 20h; Domingo das 11h - 18h  ",
        "VirtualAreaId": "3",
        "Region": "",
        "Id": "507",
        "DisplayName": "Miraflores - Cacifos"
    },
    {
        "Latitude": 37.02623,
        "Longitude": -7.91752,
        "Url": "http://auchan.pt/CMS/Lojas/Lists/Gasolineiras/Gasolineira%20Faro",
        "SupportPhoneNumber": "289243500",
        "Icon": "/Frontoffice/Images/icons/map/marker-gasolineira.png",
        "StoreServicesImage": "https://media.jumbo.pt/MediaContent/Mapa_Servicos_loja/mapInfo_033GAS.jpg",
        "Address": {
            "Country": null,
            "StreetName": "Avenida Cidade Hayward",
            "ZipCode": "8000",
            "ZipCode2": "074",
            "DoorNumber": null,
            "Floor": null,
            "Fraction": null,
            "City": "Faro",
            "District": "Faro",
            "County": "Faro",
            "Latitude": 37.02623,
            "Longitude": -7.91752,
            "FullAddress": "Avenida Cidade Hayward    8000 - 074 Faro",
            "FullAddressWithoutZipCode": "Avenida Cidade Hayward   ",
            "FullZipCode": "8000 - 074 Faro",
            "AddressType": 3,
            "IsMainAddress": false,
            "Region": "",
            "Id": "033GAS_StoreAd",
            "DisplayName": "Ponto de Recolha na loja"
        },
        "SupportedServiceTypesAsString": [],
        "Schedule": "De 2ª a 5ªFeira das 7h30-23h; 6ª Feira; Sábado e vésperas de Feriado das 7h30-23h; Domingos e Feriados das 7h30-23h; Páscoa 12/04 encerra às 13h; Dia 24/12 das 8h30-17h; Dia 31/12 das 8h30-18h",
        "VirtualAreaId": null,
        "Region": "",
        "Id": "033GAS",
        "DisplayName": "Gasolineira Faro"
    },
    {
        "Latitude": 40.16616,
        "Longitude": -8.86059,
        "Url": null,
        "SupportPhoneNumber": "233209100",
        "Icon": "/Frontoffice/Images/icons/map/marker-jumbo.png",
        "StoreServicesImage": "https://media.jumbo.pt/MediaContent/Mapa_Servicos_loja/mapInfo_034.jpg",
        "Address": {
            "Country": "",
            "StreetName": "Centro Comercial Foz Plaza, Rua dos Condados",
            "ZipCode": "3080",
            "ZipCode2": "216",
            "DoorNumber": "          ",
            "Floor": "          ",
            "Fraction": "          ",
            "City": "Figueira da Foz",
            "District": "Coimbra",
            "County": "Figueira da Foz",
            "Latitude": 40.16616,
            "Longitude": -8.86059,
            "FullAddress": "Centro Comercial Foz Plaza, Rua dos Condados Nº                                 3080 - 216 Figueira da Foz",
            "FullAddressWithoutZipCode": "Centro Comercial Foz Plaza, Rua dos Condados Nº                                ",
            "FullZipCode": "3080 - 216 Figueira da Foz",
            "AddressType": 3,
            "IsMainAddress": false,
            "Region": "Centro",
            "Id": "034_StoreAd",
            "DisplayName": "Ponto de Recolha na loja"
        },
        "SupportedServiceTypesAsString": [
            "Compre na loja e receba em casa"
        ],
        "Schedule": "De 2ª a 5ªFeira das 9h-21h; 6ªFeira, Sáb. e vésp. de Feriado das 9h-21h; Domingos e Feriados das 9h-21h; Páscoa 12/04 encerra às 13h",
        "VirtualAreaId": null,
        "Region": "Centro",
        "Id": "034",
        "DisplayName": "Auchan Figueira da Foz"
    },
    {
        "Latitude": 40.16351,
        "Longitude": -8.84125,
        "Url": "http://auchan.pt/CMS/Lojas/Lists/Gasolineiras/Gasolineiras%20Figueira%20da%20Foz",
        "SupportPhoneNumber": "233209100",
        "Icon": "/Frontoffice/Images/icons/map/marker-gasolineira.png",
        "StoreServicesImage": "https://media.jumbo.pt/MediaContent/Mapa_Servicos_loja/mapInfo_034GAS.jpg",
        "Address": {
            "Country": null,
            "StreetName": "Avenida Dr. Francisco de Sá Carneiro, Vila Robim",
            "ZipCode": "3080",
            "ZipCode2": "853",
            "DoorNumber": null,
            "Floor": null,
            "Fraction": null,
            "City": "Figueira da Foz",
            "District": "Coimbra",
            "County": "Figueira da Foz",
            "Latitude": 40.16351,
            "Longitude": -8.84125,
            "FullAddress": "Avenida Dr. Francisco de Sá Carneiro, Vila Robim    3080 - 853 Figueira da Foz",
            "FullAddressWithoutZipCode": "Avenida Dr. Francisco de Sá Carneiro, Vila Robim   ",
            "FullZipCode": "3080 - 853 Figueira da Foz",
            "AddressType": 3,
            "IsMainAddress": false,
            "Region": "",
            "Id": "034GAS_StoreAd",
            "DisplayName": "Ponto de Recolha na loja"
        },
        "SupportedServiceTypesAsString": [],
        "Schedule": "De 2ª a 5ªFeira das 7h-23h; 6ª Feira; Sábado e vésperas de Feriado das 7h-23h; Domingos e Feriados das 7h-23h; Páscoa 12/04 encerra às 13h; Dia 24/12 das 8h30-17h; Dia 31/12 das 9h-19h",
        "VirtualAreaId": null,
        "Region": "",
        "Id": "034GAS",
        "DisplayName": "Gasolineira Figueira da Foz"
    },
    {
        "Latitude": 41.17525,
        "Longitude": -8.56433,
        "Url": null,
        "SupportPhoneNumber": "227663300",
        "Icon": "/Frontoffice/Images/icons/map/marker-jumbo.png",
        "StoreServicesImage": "https://media.jumbo.pt/MediaContent/Mapa_Servicos_loja/mapInfo_035.jpg",
        "Address": {
            "Country": "",
            "StreetName": "Centro Comercial Parque Nascente, Praceta Parque Nascente, 30",
            "ZipCode": "4435",
            "ZipCode2": "840",
            "DoorNumber": "          ",
            "Floor": "          ",
            "Fraction": "          ",
            "City": "Rio Tinto",
            "District": "Porto",
            "County": "Gondomar",
            "Latitude": 41.17525,
            "Longitude": -8.56433,
            "FullAddress": "Centro Comercial Parque Nascente, Praceta Parque Nascente, 30 Nº                                 4435 - 840 Rio Tinto",
            "FullAddressWithoutZipCode": "Centro Comercial Parque Nascente, Praceta Parque Nascente, 30 Nº                                ",
            "FullZipCode": "4435 - 840 Rio Tinto",
            "AddressType": 3,
            "IsMainAddress": false,
            "Region": "Norte",
            "Id": "035_StoreAd",
            "DisplayName": "Ponto de Recolha na loja"
        },
        "SupportedServiceTypesAsString": [
            "Compre na loja e receba em casa"
        ],
        "Schedule": "De 2ª a 5ªFeira das 9h-21h; 6ªFeira, Sáb. e vésp. de Feriado das 9h-21h; Domingos e Feriados das 9h-21h; Páscoa 12/04 encerra às 13h",
        "VirtualAreaId": null,
        "Region": "Norte",
        "Id": "035",
        "DisplayName": "Auchan Gondomar"
    },
    {
        "Latitude": 41.17811,
        "Longitude": -8.56885,
        "Url": "http://auchan.pt/CMS/Lojas/Lists/Gasolineiras/Gasolineira%20Gondomar%20I",
        "SupportPhoneNumber": "227663300",
        "Icon": "/Frontoffice/Images/icons/map/marker-gasolineira.png",
        "StoreServicesImage": "https://media.jumbo.pt/MediaContent/Mapa_Servicos_loja/mapInfo_035GAS.jpg",
        "Address": {
            "Country": null,
            "StreetName": "Rua Exterior Circunvalação, 1730",
            "ZipCode": "4435",
            "ZipCode2": "462",
            "DoorNumber": null,
            "Floor": null,
            "Fraction": null,
            "City": "Rio Tinto",
            "District": "Porto",
            "County": "Gondomar",
            "Latitude": 41.17811,
            "Longitude": -8.56885,
            "FullAddress": "Rua Exterior Circunvalação, 1730    4435 - 462 Rio Tinto",
            "FullAddressWithoutZipCode": "Rua Exterior Circunvalação, 1730   ",
            "FullZipCode": "4435 - 462 Rio Tinto",
            "AddressType": 3,
            "IsMainAddress": false,
            "Region": "",
            "Id": "035GAS_StoreAd",
            "DisplayName": "Ponto de Recolha na loja"
        },
        "SupportedServiceTypesAsString": [],
        "Schedule": "De 2ª a 5ªFeira das 7h-24h; 6ª Feira; Sábado e vésperas de Feriado das 7h-24h; Domingos e Feriados das 7h-24h; Páscoa 12/04 encerra às 13h; Dia 24/12 das 8h30-17h; Dia 31/12 das 8h30-19h",
        "VirtualAreaId": null,
        "Region": "",
        "Id": "035GAS",
        "DisplayName": "Gasolineira Gondomar 1"
    },
    {
        "Latitude": 41.16262,
        "Longitude": -8.57619,
        "Url": "http://auchan.pt/CMS/Lojas/Lists/Gasolineiras/Gasolineira%20Gondomar%20II",
        "SupportPhoneNumber": "227663300",
        "Icon": "/Frontoffice/Images/icons/map/marker-gasolineira.png",
        "StoreServicesImage": "https://media.jumbo.pt/MediaContent/Mapa_Servicos_loja/mapInfo_035GAS2.jpg",
        "Address": {
            "Country": null,
            "StreetName": "Alameda de Cartes nº 429/485",
            "ZipCode": "4300",
            "ZipCode2": "008",
            "DoorNumber": null,
            "Floor": null,
            "Fraction": null,
            "City": "Campanhã",
            "District": "Porto",
            "County": "Porto",
            "Latitude": 41.16262,
            "Longitude": -8.57619,
            "FullAddress": "Alameda de Cartes nº 429/485    4300 - 008 Campanhã",
            "FullAddressWithoutZipCode": "Alameda de Cartes nº 429/485   ",
            "FullZipCode": "4300 - 008 Campanhã",
            "AddressType": 3,
            "IsMainAddress": false,
            "Region": "",
            "Id": "035GAS2_StoreAd",
            "DisplayName": "Ponto de Recolha na loja"
        },
        "SupportedServiceTypesAsString": [],
        "Schedule": "De 2ª a 5ªFeira das 6h-24h; 6ª Feira; Sábado e vésperas de Feriado das 6h-24h; Domingos e Feriados das 6h-24h; Páscoa 12/04 encerra às 13h; Dia 24/12 das 8h30-17h; Dia 31/12 das 8h30-19h",
        "VirtualAreaId": null,
        "Region": "",
        "Id": "035GAS2",
        "DisplayName": "Gasolineira Gondomar 2"
    },
    {
        "Latitude": 41.29719,
        "Longitude": -7.73549,
        "Url": null,
        "SupportPhoneNumber": "259249200",
        "Icon": "/Frontoffice/Images/icons/map/marker-jumbo.png",
        "StoreServicesImage": "https://media.jumbo.pt/MediaContent/Mapa_Servicos_loja/mapInfo_036.jpg",
        "Address": {
            "Country": "",
            "StreetName": "Centro Comercial Dolce Vita Douro, Alameda de Grace",
            "ZipCode": "5000",
            "ZipCode2": "703",
            "DoorNumber": "          ",
            "Floor": "          ",
            "Fraction": "          ",
            "City": "Vila Real",
            "District": "Vila Real",
            "County": "Vila Real",
            "Latitude": 41.29719,
            "Longitude": -7.73549,
            "FullAddress": "Centro Comercial Dolce Vita Douro, Alameda de Grace Nº                                 5000 - 703 Vila Real",
            "FullAddressWithoutZipCode": "Centro Comercial Dolce Vita Douro, Alameda de Grace Nº                                ",
            "FullZipCode": "5000 - 703 Vila Real",
            "AddressType": 3,
            "IsMainAddress": false,
            "Region": "Norte",
            "Id": "036_StoreAd",
            "DisplayName": "Ponto de Recolha na loja"
        },
        "SupportedServiceTypesAsString": [
            "Compre na loja e receba em casa"
        ],
        "Schedule": "De 2ª a 5ªFeira das 9h-21h; 6ªFeira, Sáb. e vésp. de Feriado das 9h-21h; Domingos e Feriados das 9h-21h; Páscoa 12/04 encerra às 13h",
        "VirtualAreaId": null,
        "Region": "Norte",
        "Id": "036",
        "DisplayName": "Auchan Vila Real"
    },
    {
        "Latitude": 41.29707,
        "Longitude": -7.73658,
        "Url": "http://auchan.pt/CMS/Lojas/Lists/Gasolineiras/Gasolineira%20Vila%20Real",
        "SupportPhoneNumber": "259249200",
        "Icon": "/Frontoffice/Images/icons/map/marker-gasolineira.png",
        "StoreServicesImage": "https://media.jumbo.pt/MediaContent/Mapa_Servicos_loja/mapInfo_036GAS.jpg",
        "Address": {
            "Country": null,
            "StreetName": "Rua Dr.Ótilio Figueiredo",
            "ZipCode": "5000",
            "ZipCode2": "587",
            "DoorNumber": null,
            "Floor": null,
            "Fraction": null,
            "City": "São Pedro",
            "District": "Vila Real",
            "County": "Vila Real",
            "Latitude": 41.29707,
            "Longitude": -7.73658,
            "FullAddress": "Rua Dr.Ótilio Figueiredo    5000 - 587 São Pedro",
            "FullAddressWithoutZipCode": "Rua Dr.Ótilio Figueiredo   ",
            "FullZipCode": "5000 - 587 São Pedro",
            "AddressType": 3,
            "IsMainAddress": false,
            "Region": "",
            "Id": "036GAS_StoreAd",
            "DisplayName": "Ponto de Recolha na loja"
        },
        "SupportedServiceTypesAsString": [],
        "Schedule": "De 2ª a 5ªFeira das 7h-23h; 6ª Feira; Sábado e vésperas de Feriado das 7h-23h; Domingos e Feriados das 7h-23h; Páscoa 12/04 encerra às 13h; Dia 24/12 das 9h-17h; Dia 31/12 das 9h-19h",
        "VirtualAreaId": null,
        "Region": "",
        "Id": "036GAS",
        "DisplayName": "Gasolineira Vila Real"
    },
    {
        "Latitude": 38.77848,
        "Longitude": -9.34808,
        "Url": "http://www.auchan.pt/CMS/Lojas/Lists/Jumbo%20e%20Pao%20Acucar/Jumbo%20de%20Sintra",
        "SupportPhoneNumber": "212698250",
        "Icon": "/Frontoffice/Images/icons/map/marker-jumbo.png",
        "StoreServicesImage": "https://media.jumbo.pt/MediaContent/Mapa_Servicos_loja/mapInfo_038.jpg",
        "Address": {
            "Country": "",
            "StreetName": "Rua Francisco Lyon de Castro,",
            "ZipCode": "2725",
            "ZipCode2": "397",
            "DoorNumber": "          ",
            "Floor": "          ",
            "Fraction": "          ",
            "City": "Mem Martins",
            "District": "Lisboa",
            "County": "Sintra",
            "Latitude": 38.77848,
            "Longitude": -9.34808,
            "FullAddress": "Rua Francisco Lyon de Castro, Nº                                 2725 - 397 Mem Martins",
            "FullAddressWithoutZipCode": "Rua Francisco Lyon de Castro, Nº                                ",
            "FullZipCode": "2725 - 397 Mem Martins",
            "AddressType": 3,
            "IsMainAddress": false,
            "Region": "Lisboa e Vale do Tejo",
            "Id": "038_StoreAd",
            "DisplayName": "Ponto de Recolha na loja"
        },
        "SupportedServiceTypesAsString": [
            "Compre na loja e receba em casa"
        ],
        "Schedule": "De 2ª a 5ªFeira das 8h30-21h; 6ªFeira, Sáb. e vésp. de Feriado das 8h30-21h; Domingos e Feriados das 8h30-21h; Páscoa 12/04 encerra às 13h",
        "VirtualAreaId": null,
        "Region": "Lisboa e Vale do Tejo",
        "Id": "038",
        "DisplayName": "Auchan Sintra"
    },
    {
        "Latitude": 38.77884,
        "Longitude": -9.34675,
        "Url": null,
        "SupportPhoneNumber": "212698250",
        "Icon": "/Frontoffice/Images/icons/map/marker-gasolineira.png",
        "StoreServicesImage": "https://media.jumbo.pt/MediaContent/Mapa_Servicos_loja/mapInfo_038GAS.jpg",
        "Address": {
            "Country": null,
            "StreetName": "Rua Francisco Lyon de Castro,",
            "ZipCode": "2725",
            "ZipCode2": "397",
            "DoorNumber": null,
            "Floor": null,
            "Fraction": null,
            "City": "Mem Martins",
            "District": "Lisboa",
            "County": "Sintra",
            "Latitude": 38.77884,
            "Longitude": -9.34675,
            "FullAddress": "Rua Francisco Lyon de Castro,    2725 - 397 Mem Martins",
            "FullAddressWithoutZipCode": "Rua Francisco Lyon de Castro,   ",
            "FullZipCode": "2725 - 397 Mem Martins",
            "AddressType": 3,
            "IsMainAddress": false,
            "Region": "",
            "Id": "038GAS_StoreAd",
            "DisplayName": "Ponto de Recolha na loja"
        },
        "SupportedServiceTypesAsString": [],
        "Schedule": "De 2ª a 5ªFeira das 7h-24h; 6ª Feira; Sábado e vésperas de Feriado das 7h-24h; Domingos e Feriados das 7h-24h; Páscoa 12/04 encerra às 13h; Dia 24/12 das 8h30-17h; Dia 31/12 das 8h30-18h",
        "VirtualAreaId": null,
        "Region": "",
        "Id": "038GAS",
        "DisplayName": "Gasolineira Sintra"
    },
    {
        "Latitude": 39.40104,
        "Longitude": -9.13691,
        "Url": null,
        "SupportPhoneNumber": "262249200",
        "Icon": "/Frontoffice/Images/icons/map/marker-jumbo.png",
        "StoreServicesImage": "https://media.jumbo.pt/MediaContent/Mapa_Servicos_loja/mapInfo_052.jpg",
        "Address": {
            "Country": "",
            "StreetName": "Centro Comercial VIVACCI das Caldas da Rainha, Avenida Manuel Figueira da Câmara",
            "ZipCode": "2500",
            "ZipCode2": "303",
            "DoorNumber": "          ",
            "Floor": "          ",
            "Fraction": "          ",
            "City": "Caldas da Rainha",
            "District": "Leiria",
            "County": "Caldas da Rainha",
            "Latitude": 39.40104,
            "Longitude": -9.13691,
            "FullAddress": "Centro Comercial VIVACCI das Caldas da Rainha, Avenida Manuel Figueira da Câmara Nº                                 2500 - 303 Caldas da Rainha",
            "FullAddressWithoutZipCode": "Centro Comercial VIVACCI das Caldas da Rainha, Avenida Manuel Figueira da Câmara Nº                                ",
            "FullZipCode": "2500 - 303 Caldas da Rainha",
            "AddressType": 3,
            "IsMainAddress": false,
            "Region": "Centro",
            "Id": "052_StoreAd",
            "DisplayName": "Ponto de Recolha na loja"
        },
        "SupportedServiceTypesAsString": [
            "Compre na loja e receba em casa"
        ],
        "Schedule": "De 2ª a 5ªFeira das 8h30-20h; 6ªFeira, Sáb.e vésp. de Feriado das 8h30-20h; Domingos e Feriados das 8h30-20h; Páscoa 12/04 encerra às 13h",
        "VirtualAreaId": null,
        "Region": "Centro",
        "Id": "052",
        "DisplayName": "Auchan Supermercado Caldas da Rainha "
    },
    {
        "Latitude": 37.03483,
        "Longitude": -7.84048,
        "Url": "http://auchan.pt/CMS/Lojas/Lists/Jumbo%20e%20Pao%20Acucar/Pao%20de%20Acucar%20de%20Olhao",
        "SupportPhoneNumber": "289243700",
        "Icon": "/Frontoffice/Images/icons/map/marker-jumbo.png",
        "StoreServicesImage": "https://media.jumbo.pt/MediaContent/Mapa_Servicos_loja/mapInfo_053.jpg",
        "Address": {
            "Country": "",
            "StreetName": "Centro Comercial Ria Shopping, Estrada Nacional 125",
            "ZipCode": "8700",
            "ZipCode2": "137",
            "DoorNumber": "          ",
            "Floor": "          ",
            "Fraction": "          ",
            "City": "Olhão",
            "District": "Faro",
            "County": "Olhão",
            "Latitude": 37.03483,
            "Longitude": -7.84048,
            "FullAddress": "Centro Comercial Ria Shopping, Estrada Nacional 125 Nº                                 8700 - 137 Olhão",
            "FullAddressWithoutZipCode": "Centro Comercial Ria Shopping, Estrada Nacional 125 Nº                                ",
            "FullZipCode": "8700 - 137 Olhão",
            "AddressType": 3,
            "IsMainAddress": false,
            "Region": "Sul",
            "Id": "053_StoreAd",
            "DisplayName": "Ponto de Recolha na loja"
        },
        "SupportedServiceTypesAsString": [
            "Compre na loja e receba em casa"
        ],
        "Schedule": "De 2ª a 5ªFeira das 8h30-21h; 6ªFeira, Sáb. e vésp. de Feriado das 8h30-21h; Domingos e Feriados das 8h30-21h; Páscoa 12/04 encerra às 13h",
        "VirtualAreaId": null,
        "Region": "Sul",
        "Id": "053",
        "DisplayName": "Auchan Olhão"
    },
    {
        "Latitude": 40.54047,
        "Longitude": -7.26634,
        "Url": "http://auchan.pt/CMS/Lojas/Lists/Jumbo%20e%20Pao%20Acucar/Pao%20de%20Acucar%20da%20Guarda",
        "SupportPhoneNumber": "271149100",
        "Icon": "/Frontoffice/Images/icons/map/marker-jumbo.png",
        "StoreServicesImage": "https://media.jumbo.pt/MediaContent/Mapa_Servicos_loja/mapInfo_054.jpg",
        "Address": {
            "Country": "",
            "StreetName": "Avª dos Bombeiros Voluntários Egitanienses, nº 5",
            "ZipCode": "6300",
            "ZipCode2": "523",
            "DoorNumber": "          ",
            "Floor": "          ",
            "Fraction": "          ",
            "City": "Guarda",
            "District": "Guarda",
            "County": "Guarda",
            "Latitude": 40.54047,
            "Longitude": -7.26634,
            "FullAddress": "Avª dos Bombeiros Voluntários Egitanienses, nº 5 Nº                                 6300 - 523 Guarda",
            "FullAddressWithoutZipCode": "Avª dos Bombeiros Voluntários Egitanienses, nº 5 Nº                                ",
            "FullZipCode": "6300 - 523 Guarda",
            "AddressType": 3,
            "IsMainAddress": false,
            "Region": "Centro",
            "Id": "054_StoreAd",
            "DisplayName": "Ponto de Recolha na loja"
        },
        "SupportedServiceTypesAsString": [
            "Compre na loja e receba em casa"
        ],
        "Schedule": "De 2ª a 5ªFeira das 9h-20h; 6ªFeira, Sáb. e vésp. de Feriado das 9h-20h; Domingos e Feriados das 9h-20h; Páscoa 12/04 encerra às 13h",
        "VirtualAreaId": null,
        "Region": "Centro",
        "Id": "054",
        "DisplayName": "Auchan Supermercado Guarda"
    },
    {
        "Latitude": 39.02810,
        "Longitude": -8.96492,
        "Url": "http://auchan.pt/CMS/Lojas/Lists/Jumbo%20e%20Pao%20Acucar/Pao%20de%20Acucar%20de%20Campera",
        "SupportPhoneNumber": "263247200",
        "Icon": "/Frontoffice/Images/icons/map/marker-jumbo.png",
        "StoreServicesImage": "https://media.jumbo.pt/MediaContent/Mapa_Servicos_loja/mapInfo_057.jpg",
        "Address": {
            "Country": "",
            "StreetName": "Campera Outlet Shopping, Estrada Nacional 3, Km 0,149",
            "ZipCode": "2580",
            "ZipCode2": "491",
            "DoorNumber": "          ",
            "Floor": "          ",
            "Fraction": "          ",
            "City": "Carregado",
            "District": "Lisboa",
            "County": "Alenquer",
            "Latitude": 39.02810,
            "Longitude": -8.96492,
            "FullAddress": "Campera Outlet Shopping, Estrada Nacional 3, Km 0,149 Nº                                 2580 - 491 Carregado",
            "FullAddressWithoutZipCode": "Campera Outlet Shopping, Estrada Nacional 3, Km 0,149 Nº                                ",
            "FullZipCode": "2580 - 491 Carregado",
            "AddressType": 3,
            "IsMainAddress": false,
            "Region": "Lisboa e Vale do Tejo",
            "Id": "057_StoreAd",
            "DisplayName": "Ponto de Recolha na loja"
        },
        "SupportedServiceTypesAsString": [
            "Compre na loja e receba em casa"
        ],
        "Schedule": "De 2ª a 5ªFeira das 8h-20h; 6ªFeira, Sáb. e vésp. de Feriado das 8h-20h; Domingos e Feriados das 8h-20h; Páscoa 12/04 encerra às 13h",
        "VirtualAreaId": null,
        "Region": "Lisboa e Vale do Tejo",
        "Id": "057",
        "DisplayName": "Auchan supermercado Campera"
    },
    {
        "Latitude": 37.02012,
        "Longitude": -7.92868,
        "Url": "http://auchan.pt/CMS/Lojas/Lists/Jumbo%20e%20Pao%20Acucar/Pao%20de%20Acucar%20de%20Faro",
        "SupportPhoneNumber": "289243650",
        "Icon": "/Frontoffice/Images/icons/map/marker-jumbo.png",
        "StoreServicesImage": "https://media.jumbo.pt/MediaContent/Mapa_Servicos_loja/mapInfo_058.jpg",
        "Address": {
            "Country": "",
            "StreetName": "Mercado Municipal de Faro, Largo Dr. Francisco Sá Carneiro",
            "ZipCode": "8000",
            "ZipCode2": "151",
            "DoorNumber": "          ",
            "Floor": "          ",
            "Fraction": "          ",
            "City": "Faro",
            "District": "Faro",
            "County": "Faro",
            "Latitude": 37.02012,
            "Longitude": -7.92868,
            "FullAddress": "Mercado Municipal de Faro, Largo Dr. Francisco Sá Carneiro Nº                                 8000 - 151 Faro",
            "FullAddressWithoutZipCode": "Mercado Municipal de Faro, Largo Dr. Francisco Sá Carneiro Nº                                ",
            "FullZipCode": "8000 - 151 Faro",
            "AddressType": 3,
            "IsMainAddress": false,
            "Region": "Sul",
            "Id": "058_StoreAd",
            "DisplayName": "Ponto de Recolha na loja"
        },
        "SupportedServiceTypesAsString": [
            "Compre na loja e receba em casa"
        ],
        "Schedule": "De 2ª a 5ªFeira das 8h-20h ; 6ªFeira; Sáb. e vésp. de Feriado das 8h-20h; Domingos e Feriados das 8h-20h; Páscoa 12/04 encerra às 13h",
        "VirtualAreaId": "138",
        "Region": "Sul",
        "Id": "058",
        "DisplayName": "Auchan Supermercado Faro"
    },
    {
        "Latitude": 40.25416,
        "Longitude": -8.43017,
        "Url": "http://auchan.pt/CMS/Lojas/Lists/Jumbo%20e%20Pao%20Acucar/Pao%20de%20Acucar%20de%20Eiras",
        "SupportPhoneNumber": "239243150",
        "Icon": "/Frontoffice/Images/icons/map/marker-jumbo.png",
        "StoreServicesImage": "https://media.jumbo.pt/MediaContent/Mapa_Servicos_loja/mapInfo_062.jpg",
        "Address": {
            "Country": "",
            "StreetName": "Rua Barca Ribeira de Eiras",
            "ZipCode": "3020",
            "ZipCode2": "326",
            "DoorNumber": "          ",
            "Floor": "          ",
            "Fraction": "          ",
            "City": "Eiras",
            "District": "Coimbra",
            "County": "Coimbra",
            "Latitude": 40.25416,
            "Longitude": -8.43017,
            "FullAddress": "Rua Barca Ribeira de Eiras Nº                                 3020 - 326 Eiras",
            "FullAddressWithoutZipCode": "Rua Barca Ribeira de Eiras Nº                                ",
            "FullZipCode": "3020 - 326 Eiras",
            "AddressType": 3,
            "IsMainAddress": false,
            "Region": "Centro",
            "Id": "062_StoreAd",
            "DisplayName": "Ponto de Recolha na loja"
        },
        "SupportedServiceTypesAsString": [
            "Compre na loja e receba em casa"
        ],
        "Schedule": "De 2ª a 5ªFeira das 8h30-21h; 6ªFeira, Sáb. e vésp. de Feriado das 8h30-21h; Domingos e Feriados das 8h30-21h; Páscoa 12/04 encerra às 13h",
        "VirtualAreaId": null,
        "Region": "Centro",
        "Id": "062",
        "DisplayName": "Auchan Eiras"
    },
    {
        "Latitude": 40.25456,
        "Longitude": -8.42989,
        "Url": "http://auchan.pt/CMS/Lojas/Lists/Gasolineiras/Gasolineira%20Eiras",
        "SupportPhoneNumber": "239243150",
        "Icon": "/Frontoffice/Images/icons/map/marker-gasolineira.png",
        "StoreServicesImage": "https://media.jumbo.pt/MediaContent/Mapa_Servicos_loja/mapInfo_062GAS.jpg",
        "Address": {
            "Country": null,
            "StreetName": "Rua Barca, Ribeira de Eiras",
            "ZipCode": "3020",
            "ZipCode2": "326",
            "DoorNumber": null,
            "Floor": null,
            "Fraction": null,
            "City": "Eiras",
            "District": "Coimbra",
            "County": "Coimbra",
            "Latitude": 40.25456,
            "Longitude": -8.42989,
            "FullAddress": "Rua Barca, Ribeira de Eiras    3020 - 326 Eiras",
            "FullAddressWithoutZipCode": "Rua Barca, Ribeira de Eiras   ",
            "FullZipCode": "3020 - 326 Eiras",
            "AddressType": 3,
            "IsMainAddress": false,
            "Region": "",
            "Id": "062GAS_StoreAd",
            "DisplayName": "Ponto de Recolha na loja"
        },
        "SupportedServiceTypesAsString": [],
        "Schedule": "De 2ª a 5ªFeira das 7h-23h; 6ª Feira; Sábado e vésperas de Feriado das 7h-23h; Domingos e Feriados das 7h-23h; Páscoa 12/04 encerra às 13h; Dia 24/12 das 8h30-17h; Dia 31/12 das 8h30-18h",
        "VirtualAreaId": null,
        "Region": "",
        "Id": "062GAS",
        "DisplayName": "Gasolineira Eiras"
    },
    {
        "Latitude": 37.13676,
        "Longitude": -8.46500,
        "Url": "http://auchan.pt/CMS/Lojas/Lists/Jumbo%20e%20Pao%20Acucar/Jumbo%20Pao%20de%20Acucar%20de%20Lagoa",
        "SupportPhoneNumber": "282249350",
        "Icon": "/Frontoffice/Images/icons/map/marker-jumbo.png",
        "StoreServicesImage": "https://media.jumbo.pt/MediaContent/Mapa_Servicos_loja/mapInfo_063.jpg",
        "Address": {
            "Country": "",
            "StreetName": "EN 125 Quinta da Bem Posta",
            "ZipCode": "8400",
            "ZipCode2": "701",
            "DoorNumber": "          ",
            "Floor": "          ",
            "Fraction": "          ",
            "City": "Lagoa",
            "District": "Faro",
            "County": "Lagoa",
            "Latitude": 37.13676,
            "Longitude": -8.46500,
            "FullAddress": "EN 125 Quinta da Bem Posta Nº                                 8400 - 701 Lagoa",
            "FullAddressWithoutZipCode": "EN 125 Quinta da Bem Posta Nº                                ",
            "FullZipCode": "8400 - 701 Lagoa",
            "AddressType": 3,
            "IsMainAddress": false,
            "Region": "Sul",
            "Id": "063_StoreAd",
            "DisplayName": "Ponto de Recolha na loja"
        },
        "SupportedServiceTypesAsString": [
            "Compre na loja e receba em casa"
        ],
        "Schedule": "De 2ª a 5ªFeira das 8h30-21h; 6ªFeira, Sáb. e vésp. de Feriado das 8h30-21h; Domingos e Feriados das 8h30-21h; Páscoa 12/04 encerra às 13h",
        "VirtualAreaId": null,
        "Region": "Sul",
        "Id": "063",
        "DisplayName": "Auchan Lagoa"
    },
    {
        "Latitude": 37.13654,
        "Longitude": -8.46347,
        "Url": "http://auchan.pt/CMS/Lojas/Lists/Gasolineiras/Gasolineira%20Lagoa",
        "SupportPhoneNumber": "282249350",
        "Icon": "/Frontoffice/Images/icons/map/marker-gasolineira.png",
        "StoreServicesImage": "https://media.jumbo.pt/MediaContent/Mapa_Servicos_loja/mapInfo_063GAS.jpg",
        "Address": {
            "Country": null,
            "StreetName": "EN 125 Quinta da Bem Posta",
            "ZipCode": "8400",
            "ZipCode2": "701",
            "DoorNumber": null,
            "Floor": null,
            "Fraction": null,
            "City": "Lagoa",
            "District": "Faro",
            "County": "Lagoa",
            "Latitude": 37.13654,
            "Longitude": -8.46347,
            "FullAddress": "EN 125 Quinta da Bem Posta    8400 - 701 Lagoa",
            "FullAddressWithoutZipCode": "EN 125 Quinta da Bem Posta   ",
            "FullZipCode": "8400 - 701 Lagoa",
            "AddressType": 3,
            "IsMainAddress": false,
            "Region": "",
            "Id": "063GAS_StoreAd",
            "DisplayName": "Ponto de Recolha na loja"
        },
        "SupportedServiceTypesAsString": [],
        "Schedule": "De 2ª a 5ªFeira das 7h-22h; 6ª Feira; Sábado e vésperas de Feriado das 7h-22h; Domingos e Feriados das 7h-22h; Páscoa 12/04 encerra às 13h; Dia 24/12 das 8h30-17h; Dia 31/12 das 8h30-18h",
        "VirtualAreaId": null,
        "Region": "",
        "Id": "063GAS",
        "DisplayName": "Gasolineira Lagoa"
    },
    {
        "Latitude": 41.13128,
        "Longitude": -8.64667,
        "Url": "http://auchan.pt/CMS/Lojas/Lists/Jumbo%20e%20Pao%20Acucar/Pao%20de%20Acucar%20do%20Canidelo",
        "SupportPhoneNumber": "227663600",
        "Icon": "/Frontoffice/Images/icons/map/marker-jumbo.png",
        "StoreServicesImage": "https://media.jumbo.pt/MediaContent/Mapa_Servicos_loja/mapInfo_065.jpg",
        "Address": {
            "Country": "",
            "StreetName": "Rua do Emissor, 236/238",
            "ZipCode": "4400",
            "ZipCode2": "436",
            "DoorNumber": "          ",
            "Floor": "          ",
            "Fraction": "          ",
            "City": "Canidelo",
            "District": "Porto",
            "County": "Vila Nova de Gaia",
            "Latitude": 41.13128,
            "Longitude": -8.64667,
            "FullAddress": "Rua do Emissor, 236/238 Nº                                 4400 - 436 Canidelo",
            "FullAddressWithoutZipCode": "Rua do Emissor, 236/238 Nº                                ",
            "FullZipCode": "4400 - 436 Canidelo",
            "AddressType": 3,
            "IsMainAddress": false,
            "Region": "Norte",
            "Id": "065_StoreAd",
            "DisplayName": "Ponto de Recolha na loja"
        },
        "SupportedServiceTypesAsString": [
            "Compre na loja e receba em casa"
        ],
        "Schedule": "De 2ª a 5ªFeira das 8h30-20h; 6ªFeira, Sáb. e vésp. de Feriado das 8h30-20h; Domingos e Feriados das 8h30-20h; Páscoa 12/04 encerra às 13h",
        "VirtualAreaId": null,
        "Region": "Norte",
        "Id": "065",
        "DisplayName": "Auchan Canidelo"
    },
    {
        "Latitude": 41.13084,
        "Longitude": -8.64653,
        "Url": "http://auchan.pt/CMS/Lojas/Lists/Gasolineiras/Gasolineira%20Gaia%20-%20Canidelo",
        "SupportPhoneNumber": "227663600",
        "Icon": "/Frontoffice/Images/icons/map/marker-gasolineira.png",
        "StoreServicesImage": "https://media.jumbo.pt/MediaContent/Mapa_Servicos_loja/mapInfo_065GAS.jpg",
        "Address": {
            "Country": null,
            "StreetName": "Rua do Emissor, 236-238",
            "ZipCode": "4400",
            "ZipCode2": "436",
            "DoorNumber": null,
            "Floor": null,
            "Fraction": null,
            "City": "Canidelo",
            "District": "Porto",
            "County": "Vila Nova de Gaia",
            "Latitude": 41.13084,
            "Longitude": -8.64653,
            "FullAddress": "Rua do Emissor, 236-238    4400 - 436 Canidelo",
            "FullAddressWithoutZipCode": "Rua do Emissor, 236-238   ",
            "FullZipCode": "4400 - 436 Canidelo",
            "AddressType": 3,
            "IsMainAddress": false,
            "Region": "",
            "Id": "065GAS_StoreAd",
            "DisplayName": "Ponto de Recolha na loja"
        },
        "SupportedServiceTypesAsString": [],
        "Schedule": "De 2ª a 5ªFeira das 7h-23h; 6ª Feira; Sábado e vésperas de Feriado das 7h-23h; Domingos e Feriados das 7h-23h; Páscoa 12/04 encerra às 13h; Dia 24/12 das 9h-17h; Dia 31/12 das 9h-19h",
        "VirtualAreaId": null,
        "Region": "",
        "Id": "065GAS",
        "DisplayName": "Gasolineira Canidelo"
    },
    {
        "Latitude": 38.74239,
        "Longitude": -9.13850,
        "Url": null,
        "SupportPhoneNumber": "210457801",
        "Icon": "/Frontoffice/Images/icons/map/marker-jumbo.png",
        "StoreServicesImage": "https://media.jumbo.pt/MediaContent/Mapa_Servicos_loja/mapInfo_402.jpg",
        "Address": {
            "Country": "",
            "StreetName": "Avenida João XXI, nº3",
            "ZipCode": "1000",
            "ZipCode2": "297",
            "DoorNumber": "          ",
            "Floor": "          ",
            "Fraction": "          ",
            "City": "Lisboa",
            "District": "Lisboa",
            "County": "Lisboa",
            "Latitude": 38.74239,
            "Longitude": -9.13850,
            "FullAddress": "Avenida João XXI, nº3 Nº                                 1000 - 297 Lisboa",
            "FullAddressWithoutZipCode": "Avenida João XXI, nº3 Nº                                ",
            "FullZipCode": "1000 - 297 Lisboa",
            "AddressType": 3,
            "IsMainAddress": false,
            "Region": "",
            "Id": "402_StoreAd",
            "DisplayName": "Ponto de Recolha na loja"
        },
        "SupportedServiceTypesAsString": [
            "Compre na loja e receba em casa"
        ],
        "Schedule": "De 2ª a 5ªFeira das 9h-20h; 6ªFeira, Sáb. e vésp. de Feriado das 9h-20h; Domingos e Feriados das 9h-20h; Páscoa 12/04 encerra às 13h",
        "VirtualAreaId": "126",
        "Region": "",
        "Id": "402",
        "DisplayName": "MyAuchan João XXI"
    },
    {
        "Latitude": 38.73148,
        "Longitude": -9.13829,
        "Url": null,
        "SupportPhoneNumber": "210457800",
        "Icon": "/Frontoffice/Images/icons/map/marker-jumbo.png",
        "StoreServicesImage": "https://media.jumbo.pt/MediaContent/Mapa_Servicos_loja/mapInfo_403.jpg",
        "Address": {
            "Country": "",
            "StreetName": "Rua Pascoal de Melo, nº47A e 47B",
            "ZipCode": "1000",
            "ZipCode2": "232",
            "DoorNumber": "          ",
            "Floor": "          ",
            "Fraction": "          ",
            "City": "Lisboa",
            "District": "Lisboa",
            "County": "Lisboa",
            "Latitude": 38.73148,
            "Longitude": -9.13829,
            "FullAddress": "Rua Pascoal de Melo, nº47A e 47B Nº                                 1000 - 232 Lisboa",
            "FullAddressWithoutZipCode": "Rua Pascoal de Melo, nº47A e 47B Nº                                ",
            "FullZipCode": "1000 - 232 Lisboa",
            "AddressType": 3,
            "IsMainAddress": false,
            "Region": "",
            "Id": "403_StoreAd",
            "DisplayName": "Ponto de Recolha na loja"
        },
        "SupportedServiceTypesAsString": [
            "Compre na loja e receba em casa"
        ],
        "Schedule": "De 2ª a 5ªFeira das 9h-20h; 6ªFeira, Sáb. e vésp. de Feriado das 9h-20h; Domingos e Feriados das 9h-20h; Páscoa 12/04 encerra às 13h",
        "VirtualAreaId": "125",
        "Region": "",
        "Id": "403",
        "DisplayName": "MyAuchan Pascoal de Melo"
    },
    {
        "Latitude": 38.73539,
        "Longitude": -9.15059,
        "Url": null,
        "SupportPhoneNumber": "210457802",
        "Icon": "/Frontoffice/Images/icons/map/marker-jumbo.png",
        "StoreServicesImage": "https://media.jumbo.pt/MediaContent/Mapa_Servicos_loja/mapInfo_404.jpg",
        "Address": {
            "Country": "",
            "StreetName": "Avenida Duque de Ávila, 72B",
            "ZipCode": "1050",
            "ZipCode2": "083",
            "DoorNumber": "          ",
            "Floor": "          ",
            "Fraction": "          ",
            "City": "Lisboa",
            "District": "Lisboa",
            "County": "Lisboa",
            "Latitude": 38.73539,
            "Longitude": -9.15059,
            "FullAddress": "Avenida Duque de Ávila, 72B Nº                                 1050 - 083 Lisboa",
            "FullAddressWithoutZipCode": "Avenida Duque de Ávila, 72B Nº                                ",
            "FullZipCode": "1050 - 083 Lisboa",
            "AddressType": 3,
            "IsMainAddress": false,
            "Region": "",
            "Id": "404_StoreAd",
            "DisplayName": "Ponto de Recolha na loja"
        },
        "SupportedServiceTypesAsString": [
            "Compre na loja e receba em casa"
        ],
        "Schedule": "De 2ª a 5ªFeira das 9h-20h; 6ªFeira, Sáb. e vésp. de Feriado das 9h-20h; Domingos e Feriados das 9h-20h; Páscoa 12/04 encerra às 13h",
        "VirtualAreaId": "127",
        "Region": "",
        "Id": "404",
        "DisplayName": "MyAuchan Lisboa - Duque Ávila"
    },
    {
        "Latitude": 38.72291,
        "Longitude": -9.13249,
        "Url": null,
        "SupportPhoneNumber": "210457805",
        "Icon": "/Frontoffice/Images/icons/map/marker-jumbo.png",
        "StoreServicesImage": "https://media.jumbo.pt/MediaContent/Mapa_Servicos_loja/mapInfo_406.jpg",
        "Address": {
            "Country": "",
            "StreetName": "Rua Damasceno Monteiro, nº 113",
            "ZipCode": "1170",
            "ZipCode2": "110",
            "DoorNumber": "          ",
            "Floor": "          ",
            "Fraction": "          ",
            "City": "Lisboa",
            "District": "Lisboa",
            "County": "Lisboa",
            "Latitude": 38.72291,
            "Longitude": -9.13249,
            "FullAddress": "Rua Damasceno Monteiro, nº 113 Nº                                 1170 - 110 Lisboa",
            "FullAddressWithoutZipCode": "Rua Damasceno Monteiro, nº 113 Nº                                ",
            "FullZipCode": "1170 - 110 Lisboa",
            "AddressType": 3,
            "IsMainAddress": false,
            "Region": "",
            "Id": "406_StoreAd",
            "DisplayName": "Ponto de Recolha na loja"
        },
        "SupportedServiceTypesAsString": [
            "Compre na loja e receba em casa"
        ],
        "Schedule": "De 2ª a 5ªFeira das 9h-20h; 6ªFeira, Sáb. e vésp. de Feriado das 9h-20h; Domingos e Feriados das 9h-20h; Páscoa 12/04 encerra às 13h",
        "VirtualAreaId": "209",
        "Region": "",
        "Id": "406",
        "DisplayName": "MyAuchan Damasceno Monteiro Graça"
    },
    {
        "Latitude": 38.75639,
        "Longitude": -9.25306,
        "Url": null,
        "SupportPhoneNumber": "210457804",
        "Icon": "/Frontoffice/Images/icons/map/marker-jumbo.png",
        "StoreServicesImage": "https://media.jumbo.pt/MediaContent/Mapa_Servicos_loja/mapInfo_407.jpg",
        "Address": {
            "Country": "",
            "StreetName": "Rua Dom Pedro IV, nº 35",
            "ZipCode": "2745",
            "ZipCode2": "201",
            "DoorNumber": "          ",
            "Floor": "          ",
            "Fraction": "          ",
            "City": "Queluz",
            "District": "Lisboa",
            "County": "Sintra",
            "Latitude": 38.75639,
            "Longitude": -9.25306,
            "FullAddress": "Rua Dom Pedro IV, nº 35 Nº                                 2745 - 201 Queluz",
            "FullAddressWithoutZipCode": "Rua Dom Pedro IV, nº 35 Nº                                ",
            "FullZipCode": "2745 - 201 Queluz",
            "AddressType": 3,
            "IsMainAddress": false,
            "Region": "",
            "Id": "407_StoreAd",
            "DisplayName": "Ponto de Recolha na loja"
        },
        "SupportedServiceTypesAsString": [
            "Compre na loja e receba em casa"
        ],
        "Schedule": "De 2ª a 5ªFeira das 9h-20h; 6ªFeira, Sáb. e vésp. de Feriado das 9h-20h; Domingos e Feriados das 9h-20h; Páscoa 12/04 encerra às 13h",
        "VirtualAreaId": "208",
        "Region": "",
        "Id": "407",
        "DisplayName": "MyAuchan D.Pedro IV - Queluz"
    },
    {
        "Latitude": 38.72647,
        "Longitude": -9.16583,
        "Url": null,
        "SupportPhoneNumber": "210547803",
        "Icon": "/Frontoffice/Images/icons/map/marker-jumbo.png",
        "StoreServicesImage": "https://media.jumbo.pt/MediaContent/Mapa_Servicos_loja/mapInfo_408.jpg",
        "Address": {
            "Country": "",
            "StreetName": "Calçada da Quintinha, nº 9",
            "ZipCode": "1070",
            "ZipCode2": "221",
            "DoorNumber": "          ",
            "Floor": "          ",
            "Fraction": "          ",
            "City": "Lisboa",
            "District": "Lisboa",
            "County": "Lisboa",
            "Latitude": 38.72647,
            "Longitude": -9.16583,
            "FullAddress": "Calçada da Quintinha, nº 9 Nº                                 1070 - 221 Lisboa",
            "FullAddressWithoutZipCode": "Calçada da Quintinha, nº 9 Nº                                ",
            "FullZipCode": "1070 - 221 Lisboa",
            "AddressType": 3,
            "IsMainAddress": false,
            "Region": "",
            "Id": "408_StoreAd",
            "DisplayName": "Ponto de Recolha na loja"
        },
        "SupportedServiceTypesAsString": [
            "Compre na loja e receba em casa"
        ],
        "Schedule": "De 2ª a 5ªFeira das 9h-20h; 6ªFeira, Sáb. e vésp. de Feriado das 9h-20h; Domingos e Feriados das 9h-20h; Páscoa 12/04 encerra às 13h",
        "VirtualAreaId": "207",
        "Region": "",
        "Id": "408",
        "DisplayName": "MyAuchan Calçada Quintinha Campolide"
    },
    {
        "Latitude": 38.72713,
        "Longitude": -9.13484,
        "Url": null,
        "SupportPhoneNumber": "210457809",
        "Icon": "/Frontoffice/Images/icons/map/marker-jumbo.png",
        "StoreServicesImage": "https://media.jumbo.pt/MediaContent/Mapa_Servicos_loja/mapInfo_409.jpg",
        "Address": {
            "Country": "",
            "StreetName": "Avenida Almirante Reis, 64",
            "ZipCode": "1150",
            "ZipCode2": "020",
            "DoorNumber": "          ",
            "Floor": "          ",
            "Fraction": "          ",
            "City": "Lisboa",
            "District": "Lisboa",
            "County": "Lisboa",
            "Latitude": 38.72713,
            "Longitude": -9.13484,
            "FullAddress": "Avenida Almirante Reis, 64 Nº                                 1150 - 020 Lisboa",
            "FullAddressWithoutZipCode": "Avenida Almirante Reis, 64 Nº                                ",
            "FullZipCode": "1150 - 020 Lisboa",
            "AddressType": 3,
            "IsMainAddress": false,
            "Region": "",
            "Id": "409_StoreAd",
            "DisplayName": "Ponto de Recolha na loja"
        },
        "SupportedServiceTypesAsString": [
            "Compre na loja e receba em casa"
        ],
        "Schedule": "De 2ª a 5ªFeira das 9h-20h; 6ªFeira, Sáb. e vésp. de Feriado das 9h-20h; Domingos e Feriados das 9h-20h; Páscoa 12/04 encerra às 13h",
        "VirtualAreaId": "214",
        "Region": "",
        "Id": "409",
        "DisplayName": "MyAuchan Almirante Reis"
    },
    {
        "Latitude": 38.72474,
        "Longitude": -9.13174,
        "Url": null,
        "SupportPhoneNumber": "210457806",
        "Icon": "/Frontoffice/Images/icons/map/marker-jumbo.png",
        "StoreServicesImage": "https://media.jumbo.pt/MediaContent/Mapa_Servicos_loja/mapInfo_410.jpg",
        "Address": {
            "Country": "",
            "StreetName": "Rua Penha de França, 118C",
            "ZipCode": "1170",
            "ZipCode2": "307",
            "DoorNumber": "          ",
            "Floor": "          ",
            "Fraction": "          ",
            "City": "Lisboa",
            "District": "Lisboa",
            "County": "Lisboa",
            "Latitude": 38.72474,
            "Longitude": -9.13174,
            "FullAddress": "Rua Penha de França, 118C Nº                                 1170 - 307 Lisboa",
            "FullAddressWithoutZipCode": "Rua Penha de França, 118C Nº                                ",
            "FullZipCode": "1170 - 307 Lisboa",
            "AddressType": 3,
            "IsMainAddress": false,
            "Region": "",
            "Id": "410_StoreAd",
            "DisplayName": "Ponto de Recolha na loja"
        },
        "SupportedServiceTypesAsString": [
            "Compre na loja e receba em casa"
        ],
        "Schedule": "De 2ª a 5ªFeira das 9h-20h; 6ªFeira, Sáb. e vésp. de Feriado das 9h-20h; Domingos e Feriados das 9h-20h; Páscoa 12/04 encerra às 13h",
        "VirtualAreaId": "210",
        "Region": "",
        "Id": "410",
        "DisplayName": "MyAuchan Penha de França"
    },
    {
        "Latitude": 38.74688,
        "Longitude": -9.18133,
        "Url": null,
        "SupportPhoneNumber": "210457808",
        "Icon": "/Frontoffice/Images/icons/map/marker-jumbo.png",
        "StoreServicesImage": "https://media.jumbo.pt/MediaContent/Mapa_Servicos_loja/mapInfo_411.jpg",
        "Address": {
            "Country": "",
            "StreetName": "Rua Major Neutel de Abreu, 8/9",
            "ZipCode": "1500",
            "ZipCode2": "410",
            "DoorNumber": "          ",
            "Floor": "          ",
            "Fraction": "          ",
            "City": "Lisboa",
            "District": "Lisboa",
            "County": "Lisboa",
            "Latitude": 38.74688,
            "Longitude": -9.18133,
            "FullAddress": "Rua Major Neutel de Abreu, 8/9 Nº                                 1500 - 410 Lisboa",
            "FullAddressWithoutZipCode": "Rua Major Neutel de Abreu, 8/9 Nº                                ",
            "FullZipCode": "1500 - 410 Lisboa",
            "AddressType": 3,
            "IsMainAddress": false,
            "Region": "",
            "Id": "411_StoreAd",
            "DisplayName": "Ponto de Recolha na loja"
        },
        "SupportedServiceTypesAsString": [
            "Compre na loja e receba em casa"
        ],
        "Schedule": "De 2ª a 5ªFeira das 9h-20h; 6ªFeira, Sáb. e vésp. de Feriado das 9h-20h; Domingos e Feriados das 9h-20h; Páscoa 12/04 encerra às 13h",
        "VirtualAreaId": "211",
        "Region": "",
        "Id": "411",
        "DisplayName": "MyAuchan Major Neutel Abreu - Benfica"
    },
    {
        "Latitude": 38.68211,
        "Longitude": -9.15309,
        "Url": null,
        "SupportPhoneNumber": "210457807",
        "Icon": "/Frontoffice/Images/icons/map/marker-jumbo.png",
        "StoreServicesImage": "https://media.jumbo.pt/MediaContent/Mapa_Servicos_loja/mapInfo_412.jpg",
        "Address": {
            "Country": "",
            "StreetName": "Praça Gil Vicente, 5",
            "ZipCode": "2800",
            "ZipCode2": "098",
            "DoorNumber": "          ",
            "Floor": "          ",
            "Fraction": "          ",
            "City": "Almada",
            "District": "Setúbal",
            "County": "Almada",
            "Latitude": 38.68211,
            "Longitude": -9.15309,
            "FullAddress": "Praça Gil Vicente, 5 Nº                                 2800 - 098 Almada",
            "FullAddressWithoutZipCode": "Praça Gil Vicente, 5 Nº                                ",
            "FullZipCode": "2800 - 098 Almada",
            "AddressType": 3,
            "IsMainAddress": false,
            "Region": "",
            "Id": "412_StoreAd",
            "DisplayName": "Ponto de Recolha na loja"
        },
        "SupportedServiceTypesAsString": [
            "Compre na loja e receba em casa"
        ],
        "Schedule": "De 2ª a 5ªFeira das 9h-20h; 6ªFeira, Sáb. e vésp. de Feriado das 9h-20h; Domingos e Feriados das 9h-20h; Páscoa 12/04 encerra às 13h",
        "VirtualAreaId": "230",
        "Region": "",
        "Id": "412",
        "DisplayName": "MyAuchan Gil Vicente  - Almada"
    },
    {
        "Latitude": 38.73965,
        "Longitude": -9.14666,
        "Url": null,
        "SupportPhoneNumber": "210457810",
        "Icon": "/Frontoffice/Images/icons/map/marker-jumbo.png",
        "StoreServicesImage": "https://media.jumbo.pt/MediaContent/Mapa_Servicos_loja/mapInfo_413.jpg",
        "Address": {
            "Country": "",
            "StreetName": "Avenida da República, 59",
            "ZipCode": "1050",
            "ZipCode2": "189",
            "DoorNumber": "          ",
            "Floor": "          ",
            "Fraction": "          ",
            "City": "Lisboa",
            "District": "Lisboa",
            "County": "Lisboa",
            "Latitude": 38.73965,
            "Longitude": -9.14666,
            "FullAddress": "Avenida da República, 59 Nº                                 1050 - 189 Lisboa",
            "FullAddressWithoutZipCode": "Avenida da República, 59 Nº                                ",
            "FullZipCode": "1050 - 189 Lisboa",
            "AddressType": 3,
            "IsMainAddress": false,
            "Region": "",
            "Id": "413_StoreAd",
            "DisplayName": "Ponto de Recolha na loja"
        },
        "SupportedServiceTypesAsString": [
            "Compre na loja e receba em casa"
        ],
        "Schedule": "De 2ª a 5ªFeira das 9h-20h; 6ªFeira, Sáb. e vésp. de Feriado das 9h-20h; Domingos e Feriados das 9h-20h; Páscoa 12/04 encerra às 13h",
        "VirtualAreaId": "213",
        "Region": "",
        "Id": "413",
        "DisplayName": "MyAuchan Av Republica"
    },
    {
        "Latitude": 38.73865,
        "Longitude": -9.16531,
        "Url": null,
        "SupportPhoneNumber": "210457814",
        "Icon": "/Frontoffice/Images/icons/map/marker-jumbo.png",
        "StoreServicesImage": "https://media.jumbo.pt/MediaContent/Mapa_Servicos_loja/mapInfo_414.jpg",
        "Address": {
            "Country": "",
            "StreetName": "Avenida Columbano Bordalo Pinheiro, 89A",
            "ZipCode": "1070",
            "ZipCode2": "020",
            "DoorNumber": "          ",
            "Floor": "          ",
            "Fraction": "          ",
            "City": "Lisboa",
            "District": "Lisboa",
            "County": "Lisboa",
            "Latitude": 38.73865,
            "Longitude": -9.16531,
            "FullAddress": "Avenida Columbano Bordalo Pinheiro, 89A Nº                                 1070 - 020 Lisboa",
            "FullAddressWithoutZipCode": "Avenida Columbano Bordalo Pinheiro, 89A Nº                                ",
            "FullZipCode": "1070 - 020 Lisboa",
            "AddressType": 3,
            "IsMainAddress": false,
            "Region": "",
            "Id": "414_StoreAd",
            "DisplayName": "Ponto de Recolha na loja"
        },
        "SupportedServiceTypesAsString": [
            "Compre na loja e receba em casa"
        ],
        "Schedule": "De 2ª a 5ªFeira das 9h-20h; 6ªFeira, Sáb. e vésp. de Feriado das 9h-20h; Domingos e Feriados das 9h-20h; Páscoa 12/04 encerra às 13h",
        "VirtualAreaId": "217",
        "Region": "",
        "Id": "414",
        "DisplayName": "MyAuchan Colombano Bordalo Pinheiro"
    },
    {
        "Latitude": 38.78921,
        "Longitude": -9.19250,
        "Url": null,
        "SupportPhoneNumber": "210457811",
        "Icon": "/Frontoffice/Images/icons/map/marker-jumbo.png",
        "StoreServicesImage": "https://media.jumbo.pt/MediaContent/Mapa_Servicos_loja/mapInfo_416.jpg",
        "Address": {
            "Country": "",
            "StreetName": "Rua Fernando Namora Lote 25 - Urbanização Colinas do Cruzeiro",
            "ZipCode": "2675",
            "ZipCode2": "487",
            "DoorNumber": "          ",
            "Floor": "          ",
            "Fraction": "          ",
            "City": "Odivelas",
            "District": "Lisboa",
            "County": "Odivelas",
            "Latitude": 38.78921,
            "Longitude": -9.19250,
            "FullAddress": "Rua Fernando Namora Lote 25 - Urbanização Colinas do Cruzeiro Nº                                 2675 - 487 Odivelas",
            "FullAddressWithoutZipCode": "Rua Fernando Namora Lote 25 - Urbanização Colinas do Cruzeiro Nº                                ",
            "FullZipCode": "2675 - 487 Odivelas",
            "AddressType": 3,
            "IsMainAddress": false,
            "Region": "",
            "Id": "416_StoreAd",
            "DisplayName": "Ponto de Recolha na loja"
        },
        "SupportedServiceTypesAsString": [
            "Compre na loja e receba em casa"
        ],
        "Schedule": "De 2ª a 5ªFeira das 9h-20h; 6ªFeira, Sáb. e vésp. de Feriado das 9h-20h; Domingos e Feriados das 9h-20h; Páscoa 12/04 encerra às 13h",
        "VirtualAreaId": "212",
        "Region": "",
        "Id": "416",
        "DisplayName": "MyAuchan Fernando Namora - Odivelas"
    },
    {
        "Latitude": 38.67701,
        "Longitude": -9.16426,
        "Url": null,
        "SupportPhoneNumber": "210457812",
        "Icon": "/Frontoffice/Images/icons/map/marker-jumbo.png",
        "StoreServicesImage": "https://media.jumbo.pt/MediaContent/Mapa_Servicos_loja/mapInfo_417.jpg",
        "Address": {
            "Country": "",
            "StreetName": "Avenida D. Nuno Alvares Pereira, 66",
            "ZipCode": "2800",
            "ZipCode2": "177",
            "DoorNumber": "          ",
            "Floor": "          ",
            "Fraction": "          ",
            "City": "Almada",
            "District": "Setúbal",
            "County": "Almada",
            "Latitude": 38.67701,
            "Longitude": -9.16426,
            "FullAddress": "Avenida D. Nuno Alvares Pereira, 66 Nº                                 2800 - 177 Almada",
            "FullAddressWithoutZipCode": "Avenida D. Nuno Alvares Pereira, 66 Nº                                ",
            "FullZipCode": "2800 - 177 Almada",
            "AddressType": 3,
            "IsMainAddress": false,
            "Region": "",
            "Id": "417_StoreAd",
            "DisplayName": "Ponto de Recolha na loja"
        },
        "SupportedServiceTypesAsString": [
            "Compre na loja e receba em casa"
        ],
        "Schedule": "De 2ª a 5ªFeira das 9h-20h; 6ªFeira, Sáb. e vésp. de Feriado das 9h-20h; Domingos e Feriados das 9h-20h; Páscoa 12/04 encerra às 13h",
        "VirtualAreaId": "231",
        "Region": "",
        "Id": "417",
        "DisplayName": "MyAuchan Almada - D. Nuno Alvares Pereira"
    },
    {
        "Latitude": 38.70040,
        "Longitude": -9.22966,
        "Url": null,
        "SupportPhoneNumber": null,
        "Icon": "/Frontoffice/Images/icons/map/marker-jumbo.png",
        "StoreServicesImage": "https://media.jumbo.pt/MediaContent/Mapa_Servicos_loja/mapInfo_419.jpg",
        "Address": {
            "Country": "",
            "StreetName": "Avenida dos Combatentes da Grande Guerra, nº54",
            "ZipCode": "1495",
            "ZipCode2": "039",
            "DoorNumber": "          ",
            "Floor": "          ",
            "Fraction": "          ",
            "City": "Algés",
            "District": "Lisboa",
            "County": "Oeiras",
            "Latitude": 38.70040,
            "Longitude": -9.22966,
            "FullAddress": "Avenida dos Combatentes da Grande Guerra, nº54 Nº                                 1495 - 039 Algés",
            "FullAddressWithoutZipCode": "Avenida dos Combatentes da Grande Guerra, nº54 Nº                                ",
            "FullZipCode": "1495 - 039 Algés",
            "AddressType": 3,
            "IsMainAddress": false,
            "Region": "",
            "Id": "419_StoreAd",
            "DisplayName": "Ponto de Recolha na loja"
        },
        "SupportedServiceTypesAsString": [
            "Compre na loja e receba em casa"
        ],
        "Schedule": "De 2ª a 5ªFeira das 9h-20h; 6ªFeira, Sáb. e vésp. de Feriado das 9h-20h; Domingos e Feriados das 9h-20h; Páscoa 12/04 encerra às 13h",
        "VirtualAreaId": "245",
        "Region": "",
        "Id": "419",
        "DisplayName": "MyAuchan Algés - Combatentes Gr. Guerra"
    },
    {
        "Latitude": 38.80698,
        "Longitude": -9.10104,
        "Url": null,
        "SupportPhoneNumber": "210457813",
        "Icon": "/Frontoffice/Images/icons/map/marker-jumbo.png",
        "StoreServicesImage": "https://media.jumbo.pt/MediaContent/Mapa_Servicos_loja/mapInfo_420.jpg",
        "Address": {
            "Country": "",
            "StreetName": "Praceta José Fontana,4 e 5",
            "ZipCode": "2695",
            "ZipCode2": "010",
            "DoorNumber": "          ",
            "Floor": "          ",
            "Fraction": "          ",
            "City": "Bobadela",
            "District": "Lisboa",
            "County": "Loures",
            "Latitude": 38.80698,
            "Longitude": -9.10104,
            "FullAddress": "Praceta José Fontana,4 e 5 Nº                                 2695 - 010 Bobadela",
            "FullAddressWithoutZipCode": "Praceta José Fontana,4 e 5 Nº                                ",
            "FullZipCode": "2695 - 010 Bobadela",
            "AddressType": 3,
            "IsMainAddress": false,
            "Region": "",
            "Id": "420_StoreAd",
            "DisplayName": "Ponto de Recolha na loja"
        },
        "SupportedServiceTypesAsString": [
            "Compre na loja e receba em casa"
        ],
        "Schedule": "De 2ª a 5ªFeira das 9h-20h; 6ªFeira, Sáb. e vésp. de Feriado das 9h-20h; Domingos e Feriados das 9h-20h; Páscoa 12/04 encerra às 13h",
        "VirtualAreaId": "215",
        "Region": "",
        "Id": "420",
        "DisplayName": "MyAuchan Pç Jose Fontana -  Bobadela"
    },
    {
        "Latitude": 38.73607,
        "Longitude": -9.13424,
        "Url": null,
        "SupportPhoneNumber": null,
        "Icon": "/Frontoffice/Images/icons/map/marker-jumbo.png",
        "StoreServicesImage": "https://media.jumbo.pt/MediaContent/Mapa_Servicos_loja/mapInfo_421.jpg",
        "Address": {
            "Country": "",
            "StreetName": "Avenida Almirante Reis, 203",
            "ZipCode": "1000",
            "ZipCode2": "048",
            "DoorNumber": "          ",
            "Floor": "          ",
            "Fraction": "          ",
            "City": "Lisboa",
            "District": "Lisboa",
            "County": "Lisboa",
            "Latitude": 38.73607,
            "Longitude": -9.13424,
            "FullAddress": "Avenida Almirante Reis, 203 Nº                                 1000 - 048 Lisboa",
            "FullAddressWithoutZipCode": "Avenida Almirante Reis, 203 Nº                                ",
            "FullZipCode": "1000 - 048 Lisboa",
            "AddressType": 3,
            "IsMainAddress": false,
            "Region": "",
            "Id": "421_StoreAd",
            "DisplayName": "Ponto de Recolha na loja"
        },
        "SupportedServiceTypesAsString": [
            "Compre na loja e receba em casa"
        ],
        "Schedule": "De 2ª a 5ªFeira das 9h-20h; 6ªFeira, Sáb. e vésp. de Feriado das 9h-20h; Domingos e Feriados das 9h-20h; Páscoa 12/04 encerra às 13h",
        "VirtualAreaId": "242",
        "Region": "",
        "Id": "421",
        "DisplayName": "MyAuchan Almirante Reis 203"
    },
    {
        "Latitude": 38.74306,
        "Longitude": -9.15735,
        "Url": null,
        "SupportPhoneNumber": null,
        "Icon": "/Frontoffice/Images/icons/map/marker-jumbo.png",
        "StoreServicesImage": "https://media.jumbo.pt/MediaContent/Mapa_Servicos_loja/mapInfo_422.jpg",
        "Address": {
            "Country": "",
            "StreetName": "Rua da Beneficência, nº119",
            "ZipCode": "1600",
            "ZipCode2": "018",
            "DoorNumber": "          ",
            "Floor": "          ",
            "Fraction": "          ",
            "City": "Lisboa",
            "District": "Lisboa",
            "County": "Lisboa",
            "Latitude": 38.74306,
            "Longitude": -9.15735,
            "FullAddress": "Rua da Beneficência, nº119 Nº                                 1600 - 018 Lisboa",
            "FullAddressWithoutZipCode": "Rua da Beneficência, nº119 Nº                                ",
            "FullZipCode": "1600 - 018 Lisboa",
            "AddressType": 3,
            "IsMainAddress": false,
            "Region": "",
            "Id": "422_StoreAd",
            "DisplayName": "Ponto de Recolha na loja"
        },
        "SupportedServiceTypesAsString": [
            "Compre na loja e receba em casa"
        ],
        "Schedule": "De 2ª a 5ªFeira das 9h-20h; 6ªFeira, Sáb. e vésp. de Feriado das 9h-20h; Domingos e Feriados das 9h-20h; Páscoa 12/04 encerra às 13h",
        "VirtualAreaId": "243",
        "Region": "",
        "Id": "422",
        "DisplayName": "MyAuchan Rua da Beneficiencia"
    },
    {
        "Latitude": 38.66854,
        "Longitude": -9.16854,
        "Url": null,
        "SupportPhoneNumber": "210457816",
        "Icon": "/Frontoffice/Images/icons/map/marker-jumbo.png",
        "StoreServicesImage": "https://media.jumbo.pt/MediaContent/Mapa_Servicos_loja/mapInfo_423.jpg",
        "Address": {
            "Country": "",
            "StreetName": "Praceta Bento Gonçalves, 14",
            "ZipCode": "2805",
            "ZipCode2": "101",
            "DoorNumber": "          ",
            "Floor": "          ",
            "Fraction": "          ",
            "City": "Almada",
            "District": "Setúbal",
            "County": "Almada",
            "Latitude": 38.66854,
            "Longitude": -9.16854,
            "FullAddress": "Praceta Bento Gonçalves, 14 Nº                                 2805 - 101 Almada",
            "FullAddressWithoutZipCode": "Praceta Bento Gonçalves, 14 Nº                                ",
            "FullZipCode": "2805 - 101 Almada",
            "AddressType": 3,
            "IsMainAddress": false,
            "Region": "",
            "Id": "423_StoreAd",
            "DisplayName": "Ponto de Recolha na loja"
        },
        "SupportedServiceTypesAsString": [
            "Compre na loja e receba em casa"
        ],
        "Schedule": "De 2ª a 5ªFeira das 9h-20h; 6ªFeira, Sáb. e vésp. de Feriado das 9h-20h; Domingos e Feriados das 9h-20h; Páscoa 12/04 encerra às 13h",
        "VirtualAreaId": "159",
        "Region": "",
        "Id": "423",
        "DisplayName": "MyAuchan Pç Bento Gonçalves  - Almada"
    },
    {
        "Latitude": 38.76790,
        "Longitude": -9.15654,
        "Url": null,
        "SupportPhoneNumber": "210457815",
        "Icon": "/Frontoffice/Images/icons/map/marker-jumbo.png",
        "StoreServicesImage": "https://media.jumbo.pt/MediaContent/Mapa_Servicos_loja/mapInfo_424.jpg",
        "Address": {
            "Country": "",
            "StreetName": "Rua Luís Pastor de Macedo, 5B",
            "ZipCode": "1750",
            "ZipCode2": "155",
            "DoorNumber": "          ",
            "Floor": "          ",
            "Fraction": "          ",
            "City": "Lisboa",
            "District": "Lisboa",
            "County": "Lisboa",
            "Latitude": 38.76790,
            "Longitude": -9.15654,
            "FullAddress": "Rua Luís Pastor de Macedo, 5B Nº                                 1750 - 155 Lisboa",
            "FullAddressWithoutZipCode": "Rua Luís Pastor de Macedo, 5B Nº                                ",
            "FullZipCode": "1750 - 155 Lisboa",
            "AddressType": 3,
            "IsMainAddress": false,
            "Region": "",
            "Id": "424_StoreAd",
            "DisplayName": "Ponto de Recolha na loja"
        },
        "SupportedServiceTypesAsString": [
            "Compre na loja e receba em casa"
        ],
        "Schedule": "De 2ª a 5ªFeira das 9h-20h; 6ªFeira, Sáb. e vésp. de Feriado das 9h-20h; Domingos e Feriados das 9h-20h; Páscoa 12/04 encerra às 13h",
        "VirtualAreaId": "218",
        "Region": "",
        "Id": "424",
        "DisplayName": "MyAuchan Luis Pastor Macedo - Lumiar"
    },
    {
        "Latitude": 38.67888,
        "Longitude": -9.15784,
        "Url": null,
        "SupportPhoneNumber": "210457817",
        "Icon": "/Frontoffice/Images/icons/map/marker-jumbo.png",
        "StoreServicesImage": "https://media.jumbo.pt/MediaContent/Mapa_Servicos_loja/mapInfo_425.jpg",
        "Address": {
            "Country": "",
            "StreetName": "Rua Luís de Queiróz, 10A",
            "ZipCode": "2800",
            "ZipCode2": "698",
            "DoorNumber": "          ",
            "Floor": "          ",
            "Fraction": "          ",
            "City": "Almada",
            "District": "Setúbal",
            "County": "Almada",
            "Latitude": 38.67888,
            "Longitude": -9.15784,
            "FullAddress": "Rua Luís de Queiróz, 10A Nº                                 2800 - 698 Almada",
            "FullAddressWithoutZipCode": "Rua Luís de Queiróz, 10A Nº                                ",
            "FullZipCode": "2800 - 698 Almada",
            "AddressType": 3,
            "IsMainAddress": false,
            "Region": "",
            "Id": "425_StoreAd",
            "DisplayName": "Ponto de Recolha na loja"
        },
        "SupportedServiceTypesAsString": [
            "Compre na loja e receba em casa"
        ],
        "Schedule": "De 2ª a 5ªFeira das 9h-20h; 6ªFeira, Sáb. e vésp. de Feriado das 9h-20h; Domingos e Feriados das 9h-20h; Páscoa 12/04 encerra às 13h",
        "VirtualAreaId": "222",
        "Region": "",
        "Id": "425",
        "DisplayName": "MyAuchan Luis Queiroz Almada"
    },
    {
        "Latitude": 38.74699,
        "Longitude": -9.18818,
        "Url": null,
        "SupportPhoneNumber": "210457819",
        "Icon": "/Frontoffice/Images/icons/map/marker-jumbo.png",
        "StoreServicesImage": "https://media.jumbo.pt/MediaContent/Mapa_Servicos_loja/mapInfo_427.jpg",
        "Address": {
            "Country": "",
            "StreetName": "Estrada de Benfica 418D - Galerias Habib",
            "ZipCode": "1500",
            "ZipCode2": "101",
            "DoorNumber": "          ",
            "Floor": "          ",
            "Fraction": "          ",
            "City": "Lisboa",
            "District": "Lisboa",
            "County": "Lisboa",
            "Latitude": 38.74699,
            "Longitude": -9.18818,
            "FullAddress": "Estrada de Benfica 418D - Galerias Habib Nº                                 1500 - 101 Lisboa",
            "FullAddressWithoutZipCode": "Estrada de Benfica 418D - Galerias Habib Nº                                ",
            "FullZipCode": "1500 - 101 Lisboa",
            "AddressType": 3,
            "IsMainAddress": false,
            "Region": "",
            "Id": "427_StoreAd",
            "DisplayName": "Ponto de Recolha na loja"
        },
        "SupportedServiceTypesAsString": [
            "Compre na loja e receba em casa"
        ],
        "Schedule": "De 2ª a 5ªFeira das 9h-20h; 6ªFeira, Sáb. e vésp. de Feriado das 9h-20h; Domingos e Feriados das 9h-20h; Páscoa 12/04 encerra às 13h",
        "VirtualAreaId": "220",
        "Region": "",
        "Id": "427",
        "DisplayName": "MyAuchan Estrada de Benfica 418"
    },
    {
        "Latitude": 38.75505,
        "Longitude": -9.15037,
        "Url": null,
        "SupportPhoneNumber": "210457818",
        "Icon": "/Frontoffice/Images/icons/map/marker-jumbo.png",
        "StoreServicesImage": "https://media.jumbo.pt/MediaContent/Mapa_Servicos_loja/mapInfo_428.jpg",
        "Address": {
            "Country": "",
            "StreetName": "Avenida do Brasil, 26",
            "ZipCode": "1700",
            "ZipCode2": "062",
            "DoorNumber": "          ",
            "Floor": "          ",
            "Fraction": "          ",
            "City": "Lisboa",
            "District": "Lisboa",
            "County": "Lisboa",
            "Latitude": 38.75505,
            "Longitude": -9.15037,
            "FullAddress": "Avenida do Brasil, 26 Nº                                 1700 - 062 Lisboa",
            "FullAddressWithoutZipCode": "Avenida do Brasil, 26 Nº                                ",
            "FullZipCode": "1700 - 062 Lisboa",
            "AddressType": 3,
            "IsMainAddress": false,
            "Region": "",
            "Id": "428_StoreAd",
            "DisplayName": "Ponto de Recolha na loja"
        },
        "SupportedServiceTypesAsString": [
            "Compre na loja e receba em casa"
        ],
        "Schedule": "De 2ª a 5ªFeira das 9h-20h; 6ªFeira, Sáb. e vésp. de Feriado das 9h-20h; Domingos e Feriados das 9h-20h; Páscoa 12/04 encerra às 13h",
        "VirtualAreaId": "219",
        "Region": "",
        "Id": "428",
        "DisplayName": "MyAuchan Av Brasil"
    },
    {
        "Latitude": 38.75789,
        "Longitude": -9.18725,
        "Url": null,
        "SupportPhoneNumber": "210457821",
        "Icon": "/Frontoffice/Images/icons/map/marker-jumbo.png",
        "StoreServicesImage": "https://media.jumbo.pt/MediaContent/Mapa_Servicos_loja/mapInfo_429.jpg",
        "Address": {
            "Country": "",
            "StreetName": "Rua Adelaide Cabete, 10",
            "ZipCode": "1500",
            "ZipCode2": "024",
            "DoorNumber": "          ",
            "Floor": "          ",
            "Fraction": "          ",
            "City": "Lisboa",
            "District": "Lisboa",
            "County": "Lisboa",
            "Latitude": 38.75789,
            "Longitude": -9.18725,
            "FullAddress": "Rua Adelaide Cabete, 10 Nº                                 1500 - 024 Lisboa",
            "FullAddressWithoutZipCode": "Rua Adelaide Cabete, 10 Nº                                ",
            "FullZipCode": "1500 - 024 Lisboa",
            "AddressType": 3,
            "IsMainAddress": false,
            "Region": "Centro",
            "Id": "429_StoreAd",
            "DisplayName": "Ponto de Recolha na loja"
        },
        "SupportedServiceTypesAsString": [
            "Compre na loja e receba em casa"
        ],
        "Schedule": "De 2ª a 5ªFeira das 9h-20h; 6ªFeira, Sáb. e vésp. de Feriado das 9h-20h; Domingos e Feriados das 9h-20h; Páscoa 12/04 encerra às 13h",
        "VirtualAreaId": "221",
        "Region": "Centro",
        "Id": "429",
        "DisplayName": "MyAuchan Adelaide Cabete  - Carnide"
    },
    {
        "Latitude": 38.75725,
        "Longitude": -9.25784,
        "Url": null,
        "SupportPhoneNumber": null,
        "Icon": "/Frontoffice/Images/icons/map/marker-jumbo.png",
        "StoreServicesImage": "https://media.jumbo.pt/MediaContent/Mapa_Servicos_loja/mapInfo_430.jpg",
        "Address": {
            "Country": "",
            "StreetName": "Avenida Elias Garcia, 197",
            "ZipCode": "2700",
            "ZipCode2": "234",
            "DoorNumber": "          ",
            "Floor": "          ",
            "Fraction": "          ",
            "City": "Amadora",
            "District": "Lisboa",
            "County": "Amadora",
            "Latitude": 38.75725,
            "Longitude": -9.25784,
            "FullAddress": "Avenida Elias Garcia, 197 Nº                                 2700 - 234 Amadora",
            "FullAddressWithoutZipCode": "Avenida Elias Garcia, 197 Nº                                ",
            "FullZipCode": "2700 - 234 Amadora",
            "AddressType": 3,
            "IsMainAddress": false,
            "Region": "",
            "Id": "430_StoreAd",
            "DisplayName": "Ponto de Recolha na loja"
        },
        "SupportedServiceTypesAsString": [
            "Compre na loja e receba em casa"
        ],
        "Schedule": "De 2ª a 5ªFeira das 9h-20h; 6ªFeira, Sáb. e vésp. de Feriado das 9h-20h; Domingos e Feriados das 9h-20h; Páscoa 12/04 encerra às 13h",
        "VirtualAreaId": "239",
        "Region": "",
        "Id": "430",
        "DisplayName": "MyAuchan Elias Garcia Amadora"
    },
    {
        "Latitude": 38.63873,
        "Longitude": -9.23137,
        "Url": null,
        "SupportPhoneNumber": "210457820",
        "Icon": "/Frontoffice/Images/icons/map/marker-jumbo.png",
        "StoreServicesImage": "https://media.jumbo.pt/MediaContent/Mapa_Servicos_loja/mapInfo_432.jpg",
        "Address": {
            "Country": "",
            "StreetName": "Praçeta Nossa Senhora dos Navegantes, 64A",
            "ZipCode": "2825",
            "ZipCode2": "044",
            "DoorNumber": "          ",
            "Floor": "          ",
            "Fraction": "          ",
            "City": "Caparica",
            "District": "Setúbal",
            "County": "Almada",
            "Latitude": 38.63873,
            "Longitude": -9.23137,
            "FullAddress": "Praçeta Nossa Senhora dos Navegantes, 64A Nº                                 2825 - 044 Caparica",
            "FullAddressWithoutZipCode": "Praçeta Nossa Senhora dos Navegantes, 64A Nº                                ",
            "FullZipCode": "2825 - 044 Caparica",
            "AddressType": 3,
            "IsMainAddress": false,
            "Region": "",
            "Id": "432_StoreAd",
            "DisplayName": "Ponto de Recolha na loja"
        },
        "SupportedServiceTypesAsString": [
            "Compre na loja e receba em casa"
        ],
        "Schedule": "De 2ª a 5ªFeira das 9h-20h; 6ªFeira, Sáb. e vésp. de Feriado das 9h-20h; Domingos e Feriados das 9h-20h; Páscoa 12/04 encerra às 13h",
        "VirtualAreaId": "158",
        "Region": "",
        "Id": "432",
        "DisplayName": "MyAuchan Pç N. S. Navegantes C. Caparica"
    },
    {
        "Latitude": 38.74378,
        "Longitude": -9.14029,
        "Url": null,
        "SupportPhoneNumber": null,
        "Icon": "/Frontoffice/Images/icons/map/marker-jumbo.png",
        "StoreServicesImage": "https://media.jumbo.pt/MediaContent/Mapa_Servicos_loja/mapInfo_433.jpg",
        "Address": {
            "Country": "",
            "StreetName": "Avenida Óscar Monteiro Torres, 57 -  São João de Deus",
            "ZipCode": "1000",
            "ZipCode2": "217",
            "DoorNumber": "          ",
            "Floor": "          ",
            "Fraction": "          ",
            "City": "Lisboa",
            "District": "Lisboa",
            "County": "Lisboa",
            "Latitude": 38.74378,
            "Longitude": -9.14029,
            "FullAddress": "Avenida Óscar Monteiro Torres, 57 -  São João de Deus Nº                                 1000 - 217 Lisboa",
            "FullAddressWithoutZipCode": "Avenida Óscar Monteiro Torres, 57 -  São João de Deus Nº                                ",
            "FullZipCode": "1000 - 217 Lisboa",
            "AddressType": 3,
            "IsMainAddress": false,
            "Region": "",
            "Id": "433_StoreAd",
            "DisplayName": "Ponto de Recolha na loja"
        },
        "SupportedServiceTypesAsString": [
            "Compre na loja e receba em casa"
        ],
        "Schedule": "De 2ª a 5ªFeira das 9h-20h; 6ªFeira, Sáb. e vésp. de Feriado das 9h-20h; Domingos e Feriados das 9h-20h; Páscoa 12/04 encerra às 13h",
        "VirtualAreaId": "241",
        "Region": "",
        "Id": "433",
        "DisplayName": "MyAuchan Oscar Monteiro Torres"
    },
    {
        "Latitude": 38.53022,
        "Longitude": -8.88022,
        "Url": null,
        "SupportPhoneNumber": "210457822",
        "Icon": "/Frontoffice/Images/icons/map/marker-jumbo.png",
        "StoreServicesImage": "https://media.jumbo.pt/MediaContent/Mapa_Servicos_loja/mapInfo_434.jpg",
        "Address": {
            "Country": "",
            "StreetName": "Avenida Dom João II, 22B",
            "ZipCode": "2910",
            "ZipCode2": "548",
            "DoorNumber": "          ",
            "Floor": "          ",
            "Fraction": "          ",
            "City": "Setúbal",
            "District": "Setúbal",
            "County": "Setúbal",
            "Latitude": 38.53022,
            "Longitude": -8.88022,
            "FullAddress": "Avenida Dom João II, 22B Nº                                 2910 - 548 Setúbal",
            "FullAddressWithoutZipCode": "Avenida Dom João II, 22B Nº                                ",
            "FullZipCode": "2910 - 548 Setúbal",
            "AddressType": 3,
            "IsMainAddress": false,
            "Region": "",
            "Id": "434_StoreAd",
            "DisplayName": "Ponto de Recolha na loja"
        },
        "SupportedServiceTypesAsString": [
            "Compre na loja e receba em casa"
        ],
        "Schedule": "De 2ª a 5ªFeira das 9h-20h; 6ªFeira, Sáb. e vésp. de Feriado das 9h-20h; Domingos e Feriados das 9h-20h; Páscoa 12/04 encerra às 13h",
        "VirtualAreaId": "130",
        "Region": "",
        "Id": "434",
        "DisplayName": "MyAuchan Av D. Joao II -  Setubal"
    },
    {
        "Latitude": 38.73477,
        "Longitude": -9.13304,
        "Url": null,
        "SupportPhoneNumber": null,
        "Icon": "/Frontoffice/Images/icons/map/marker-jumbo.png",
        "StoreServicesImage": "https://media.jumbo.pt/MediaContent/Mapa_Servicos_loja/mapInfo_435.jpg",
        "Address": {
            "Country": "",
            "StreetName": "Rua José Ricardo 26-A",
            "ZipCode": "1900",
            "ZipCode2": "286",
            "DoorNumber": "          ",
            "Floor": "          ",
            "Fraction": "          ",
            "City": "Lisboa",
            "District": "Lisboa",
            "County": "Lisboa",
            "Latitude": 38.73477,
            "Longitude": -9.13304,
            "FullAddress": "Rua José Ricardo 26-A Nº                                 1900 - 286 Lisboa",
            "FullAddressWithoutZipCode": "Rua José Ricardo 26-A Nº                                ",
            "FullZipCode": "1900 - 286 Lisboa",
            "AddressType": 3,
            "IsMainAddress": false,
            "Region": "",
            "Id": "435_StoreAd",
            "DisplayName": "Ponto de Recolha na loja"
        },
        "SupportedServiceTypesAsString": [
            "Compre na loja e receba em casa"
        ],
        "Schedule": "De 2ª a 5ªFeira das 9h-20h; 6ªFeira, Sáb. e vésp. de Feriado das 9h-20h; Domingos e Feriados das 9h-20h; Páscoa 12/04 encerra às 13h",
        "VirtualAreaId": "244",
        "Region": "",
        "Id": "435",
        "DisplayName": "MyAuchan Av. Jose Ricardo - Arroios"
    },
    {
        "Latitude": 38.71243,
        "Longitude": -9.31004,
        "Url": null,
        "SupportPhoneNumber": "213546131 / 707200333",
        "Icon": "/Frontoffice/Images/icons/map/marker-jumbo.png",
        "StoreServicesImage": "https://media.jumbo.pt/MediaContent/Mapa_Servicos_loja/mapInfo_502.jpg",
        "Address": {
            "Country": null,
            "StreetName": "Lagoas Park - Edifício 12 (junto ao edifício)",
            "ZipCode": "2740",
            "ZipCode2": "265",
            "DoorNumber": null,
            "Floor": null,
            "Fraction": null,
            "City": "Porto Salvo",
            "District": "Lisboa",
            "County": "Oeiras",
            "Latitude": 38.71243,
            "Longitude": -9.31004,
            "FullAddress": "Lagoas Park - Edifício 12 (junto ao edifício)    2740 - 265 Porto Salvo",
            "FullAddressWithoutZipCode": "Lagoas Park - Edifício 12 (junto ao edifício)   ",
            "FullZipCode": "2740 - 265 Porto Salvo",
            "AddressType": 3,
            "IsMainAddress": false,
            "Region": "",
            "Id": "502_StoreAd",
            "DisplayName": "Ponto de Recolha na loja"
        },
        "SupportedServiceTypesAsString": [
            "Compre na loja e receba em casa"
        ],
        "Schedule": "2ª a 6ª das 17h-20h, excepto feriados.  Dia 24/12 e 31/12 não disponível",
        "VirtualAreaId": "124",
        "Region": "",
        "Id": "502",
        "DisplayName": "Drive Lagoas Park"
    },
    {
        "Latitude": 40.66961,
        "Longitude": -8.61293,
        "Url": null,
        "SupportPhoneNumber": "234249200",
        "Icon": "/Frontoffice/Images/icons/map/marker-jumbo.png",
        "StoreServicesImage": "https://media.jumbo.pt/MediaContent/Mapa_Servicos_loja/mapInfo_503.jpg",
        "Address": {
            "Country": null,
            "StreetName": "Estrada Nacional 16, Km 3.7",
            "ZipCode": "3800",
            "ZipCode2": "533",
            "DoorNumber": null,
            "Floor": null,
            "Fraction": null,
            "City": "Cacia",
            "District": "Aveiro",
            "County": "Aveiro",
            "Latitude": 40.66961,
            "Longitude": -8.61293,
            "FullAddress": "Estrada Nacional 16, Km 3.7    3800 - 533 Cacia",
            "FullAddressWithoutZipCode": "Estrada Nacional 16, Km 3.7   ",
            "FullZipCode": "3800 - 533 Cacia",
            "AddressType": 3,
            "IsMainAddress": false,
            "Region": "",
            "Id": "503_StoreAd",
            "DisplayName": "Ponto de Recolha na loja"
        },
        "SupportedServiceTypesAsString": [
            "Compre na loja e receba em casa"
        ],
        "Schedule": "6ª das 17h30m-18h30, excepto feriados.",
        "VirtualAreaId": "152",
        "Region": "",
        "Id": "503",
        "DisplayName": "Drive Bosch Aveiro"
    },
    {
        "Latitude": 38.70378,
        "Longitude": -9.17678,
        "Url": null,
        "SupportPhoneNumber": "213546131 / 707200333",
        "Icon": "/Frontoffice/Images/icons/map/marker-jumbo.png",
        "StoreServicesImage": "https://media.jumbo.pt/MediaContent/Mapa_Servicos_loja/mapInfo_505.jpg",
        "Address": {
            "Country": null,
            "StreetName": "Rua Maria Luísa Holstein 4,",
            "ZipCode": "1300",
            "ZipCode2": "149",
            "DoorNumber": null,
            "Floor": null,
            "Fraction": null,
            "City": "Lisboa",
            "District": "Lisboa",
            "County": "Lisboa",
            "Latitude": 38.70378,
            "Longitude": -9.17678,
            "FullAddress": "Rua Maria Luísa Holstein 4,    1300 - 149 Lisboa",
            "FullAddressWithoutZipCode": "Rua Maria Luísa Holstein 4,   ",
            "FullZipCode": "1300 - 149 Lisboa",
            "AddressType": 3,
            "IsMainAddress": false,
            "Region": "",
            "Id": "505_StoreAd",
            "DisplayName": "Ponto de Recolha na loja"
        },
        "SupportedServiceTypesAsString": [
            "Compre na loja e receba em casa"
        ],
        "Schedule": "De 2ª a 6ª das 11h30m às 20h, excepto feriados.",
        "VirtualAreaId": "128",
        "Region": "",
        "Id": "505",
        "DisplayName": "Alcântara - Cacifos"
    }
]